,name,place_id,rating,types,user_ratings_total,price_level,geometry,vicinity,Latitude,Longitude
0,Urbana,ChIJVVUBBi5FwokR50VGU0rFcT0,4.5,"['restaurant', 'food', 'point_of_interest', 'establishment']",477,2.0,,"1305 53rd Street, Brooklyn",40.632668699999996,-73.9940434
1,Sub Express,ChIJ39jfBi5FwokRONL9Vx5uW7w,4.1,"['meal_delivery', 'restaurant', 'food', 'point_of_interest', 'store', 'establishment']",480,2.0,,"5217 13th Avenue, Brooklyn",40.6328756,-73.9941569
2,Sushi Meshuna,ChIJWSAR5y1FwokROepafQL49JU,4.5,"['meal_delivery', 'restaurant', 'food', 'point_of_interest', 'establishment']",217,1.0,,"5115 13th Avenue, Brooklyn",40.6333737,-73.9934571
3,Dips,ChIJw1JEHC5FwokRP1qIrecfA1Y,4.8,"['restaurant', 'food', 'point_of_interest', 'store', 'establishment']",572,2.0,,"5315 13th Avenue, Brooklyn",40.632276,-73.99451499999999
4,Rita's Italian Ice & Frozen Custard,ChIJNYaCjaBFwokRd7hKsdU3GZk,4.3,"['restaurant', 'food', 'point_of_interest', 'store', 'establishment']",6,1.0,,"1311 51st Street, Brooklyn",40.6337809,-73.9928396
5,Deli 52,ChIJF0ZZ5S1FwokRp3vbZqKA1fE,4.3,"['meal_delivery', 'restaurant', 'food', 'point_of_interest', 'store', 'establishment']",519,2.0,,"5120 13th Avenue, Brooklyn",40.6336362,-73.9939115
6,Panino Toasty Delicious,ChIJSWKSekpFwokRWTVZwsreS_I,4.7,"['restaurant', 'food', 'point_of_interest', 'establishment']",121,,,"5401 13th Avenue, Brooklyn",40.6320159,-73.994917
7,J2 Pizza,ChIJbwMH7y1FwokRSLWO1_ew2D8,4.1,"['meal_delivery', 'meal_takeaway', 'restaurant', 'food', 'point_of_interest', 'establishment']",96,2.0,,"5114 13th Avenue, Brooklyn",40.633749,-73.993828
8,Ess&Bentch Boro Park,ChIJhcDp_s1FwokRSCI0LfhNgSY,4.4,"['restaurant', 'food', 'point_of_interest', 'establishment']",59,,,"5326 13th Avenue, Brooklyn",40.6324499,-73.99506339999999
9,Sesame - Boro Park,ChIJWzNzPq5FwokRpGctDFofO4s,4.8,"['bakery', 'restaurant', 'food', 'point_of_interest', 'store', 'establishment']",156,,,"5024 13th Avenue, Brooklyn",40.63406339999999,-73.99334139999999
10,Gobo's Cafe,ChIJv8ja2zFFwokRM29S4wxvTfw,4.4,"['cafe', 'meal_delivery', 'bakery', 'restaurant', 'food', 'point_of_interest', 'store', 'establishment']",307,2.0,,"5421 New Utrecht Avenue, Brooklyn",40.6316373,-73.995203
11,"Luzee Takeout, Kosher Deli, Catering",ChIJNTbi2zFFwokRToG0YfqOGRQ,5.0,"['restaurant', 'food', 'point_of_interest', 'establishment']",38,,,"5421 New Utrecht Avenue # A, Brooklyn",40.63162839999999,-73.9952991
12,Gobo's Cafe,ChIJAREfbUlFwokRyc0APiYVMbM,5.0,"['restaurant', 'food', 'point_of_interest', 'establishment']",5,,,"5421 New Utrecht Avenue, Brooklyn",40.6315888,-73.995292
13,Schnitzi,ChIJFWip-jFFwokR2VEXLlzEA6Y,4.5,"['restaurant', 'food', 'point_of_interest', 'establishment']",438,1.0,,"5326 New Utrecht Avenue, Brooklyn",40.632639,-73.995474
14,MASBIA of Boro Park,ChIJhTda7zFFwokR07qPxM-5SeA,4.3,"['restaurant', 'food', 'point_of_interest', 'establishment']",40,,,"5402 New Utrecht Avenue, Brooklyn",40.63236,-73.995519
15,Meisner's Take Home Food,ChIJt5U95jFFwokRWg58GhTaYsk,4.8,"['restaurant', 'food', 'point_of_interest', 'establishment']",46,,,"5410 New Utrecht Avenue, Brooklyn",40.6321993,-73.9955413
16,Spoons,ChIJoV0CuS1FwokRuBQ7ck5P_Dg,4.3,"['meal_delivery', 'cafe', 'restaurant', 'food', 'point_of_interest', 'establishment']",451,2.0,,"5001 13th Avenue, Brooklyn",40.6342198,-73.9924796
17,Yossi's Sweet House,ChIJDxA0HydFwokRsVmdVzIm2-Y,4.6,"['cafe', 'restaurant', 'food', 'point_of_interest', 'store', 'establishment']",55,1.0,,"5304 New Utrecht Avenue, Brooklyn",40.6331237,-73.9953692
18,Kim Ess Doo,ChIJo8qv7ZZFwokRDyIWbbdbAT4,4.5,"['restaurant', 'food', 'point_of_interest', 'establishment']",118,1.0,,"5507 13th Avenue, Brooklyn",40.6312492,-73.9957671
19,Taste 'n Toast,ChIJIZ1iWDvxZUARFTFQdNz__zY,4.6,"['restaurant', 'food', 'point_of_interest', 'establishment']",38,,,"5516 New Utrecht Avenue, Brooklyn",40.6310003,-73.9957932
20,Le Buffet,ChIJL-0aNyZFwokRff7KScaG8as,4.7,"['restaurant', 'food', 'point_of_interest', 'establishment']",74.0,,,"5501 17th Avenue, Brooklyn",40.62597969999999,-73.9865323
21,JII Pizza,ChIJ1_WnoidFwokRReO1uB00pgU,4.3,"['meal_delivery', 'restaurant', 'food', 'point_of_interest', 'establishment']",194.0,1.0,,"5502 18th Avenue, Brooklyn",40.62492200000001,-73.984667
22,Veggies Inc,ChIJEdy4-SdFwokRnp7RwBpwHSY,4.7,"['convenience_store', 'grocery_or_supermarket', 'cafe', 'restaurant', 'food', 'point_of_interest', 'store', 'establishment']",9.0,,,"5301 18th Avenue, Brooklyn",40.625856,-73.9832038
23,Vaad Hachnosas Orchim Guest,ChIJTQCkEChFwokRe-u4uPXeCaA,3.7,"['meal_takeaway', 'restaurant', 'food', 'point_of_interest', 'establishment']",3.0,,,"1733 52nd Street, Brooklyn",40.627495,-73.983761
24,Big Fleishig's Express,ChIJYTGvVy9FwokRvhXzOxC0jDA,4.3,"['restaurant', 'food', 'point_of_interest', 'establishment']",227.0,2.0,,"5508 16th Avenue, Brooklyn",40.62756809999999,-73.9894073
25,Glatt A La Carte,ChIJJwEg-ddEwokROudgJLI-Kt0,4.8,"['restaurant', 'food', 'point_of_interest', 'establishment']",893.0,2.0,,"5123 18th Avenue, Brooklyn",40.6265615,-73.9824403
26,Kaff Kafe,ChIJtwa5tyhFwokRVnJSVx4xyws,4.5,"['meal_delivery', 'cafe', 'restaurant', 'food', 'point_of_interest', 'store', 'establishment']",318.0,2.0,,"5320 16th Avenue, Brooklyn",40.62848549999999,-73.9883852
27,Hadar Geulah,ChIJ3WGNyyZFwokR2rEXFNl5UUM,4.6,"['restaurant', 'food', 'point_of_interest', 'establishment']",236.0,2.0,,"5914 18th Avenue, Brooklyn",40.6223882,-73.98709389999999
28,MSL Estates,ChIJQRu7JihFwokRaK9Do43L4i0,3.5,"['restaurant', 'food', 'point_of_interest', 'establishment']",2.0,,,"1725 51st Street, Brooklyn",40.62813999999999,-73.98333579999999
29,Sushi Crave,ChIJC_Y6boRFwokRHDmtJyl3aSQ,,"['meal_takeaway', 'restaurant', 'food', 'point_of_interest', 'establishment']",,,,"5222 16th Avenue, Brooklyn",40.62896629999999,-73.987912
30,A & L Pizza Restaurant,ChIJQ85jRSFFwokRUhDlGwfjlG0,3.6,"['restaurant', 'food', 'point_of_interest', 'establishment']",78.0,,,"6024 18th Avenue, Brooklyn",40.6215929,-73.9878756
31,City cafe kosher,ChIJJbfp2qhFwokRX2j5UjFrzgE,5.0,"['restaurant', 'food', 'point_of_interest', 'establishment']",3.0,,,"4923 18th Avenue, Brooklyn",40.62779149999999,-73.9812671
32,Sushi Glatt,ChIJdWo8p9tFwokRZvXvQ2MxOSs,5.0,"['restaurant', 'food', 'point_of_interest', 'establishment']",4.0,,,"5009 16th Avenue, Brooklyn",40.6301102,-73.98618239999999
33,Moti's,ChIJRxX1CClFwokRhxDzLH1JHTE,4.6,"['restaurant', 'food', 'point_of_interest', 'establishment']",141.0,1.0,,"5007 16th Avenue, Brooklyn",40.6301407,-73.9861119
34,Bh Food Corporation,ChIJ6VdhUNhEwokRCYgAaTATOrY,5.0,"['restaurant', 'food', 'point_of_interest', 'establishment']",4.0,,,"1914 53rd Street, Brooklyn",40.6242457,-73.98069799999999
35,Anita's,ChIJHYD97CRFwokRn0vY19svqv0,3.8,"['restaurant', 'food', 'point_of_interest', 'establishment']",16.0,,,"6100 16th Avenue, Brooklyn",40.624283,-73.992763
36,Good Day,ChIJt-ODYSFFwokRDKwtLRsmf7Q,3.9,"['restaurant', 'food', 'point_of_interest', 'establishment']",226.0,2.0,,"6202 18th Avenue, Brooklyn",40.6208381,-73.9886856
37,Like Cafe,ChIJq6rtZCFFwokRxApf8ZfR_2o,4.1,"['restaurant', 'food', 'point_of_interest', 'establishment']",233.0,1.0,,"6205 18th Avenue, Brooklyn",40.620582,-73.9884091
38,Sungai Malaysian Cuisine,ChIJF4EMN5VFwokR-_RTpJuO9-o,4.2,"['restaurant', 'meal_delivery', 'food', 'point_of_interest', 'establishment']",75.0,,,"6218 18th Avenue, Brooklyn",40.62050869999999,-73.989041
39,Jin Jin Hong Kong Cafe,ChIJNTq51yNFwokRtdAsSDNH5ig,4.2,"['restaurant', 'food', 'point_of_interest', 'establishment']",377.0,1.0,,"6224 18th Avenue, Brooklyn",40.6205055,-73.9890978
41,Cafe Pobeda,ChIJ3blGNDBFwokR9n92csKLHGk,4.0,"['restaurant', 'food', 'point_of_interest', 'establishment']",232.0,,,"5610 New Utrecht Avenue #4631, Brooklyn",40.630615,-73.995976
43,Taste 'n Toast,ChIJIZ1iWDvxZUARFTFQdNz__zY,4.6,"['restaurant', 'food', 'point_of_interest', 'establishment']",38.0,,,"5516 New Utrecht Avenue, Brooklyn",40.6310003,-73.9957932
44,Gobo's Cafe,ChIJv8ja2zFFwokRM29S4wxvTfw,4.4,"['cafe', 'meal_delivery', 'bakery', 'restaurant', 'food', 'point_of_interest', 'store', 'establishment']",307.0,2.0,,"5421 New Utrecht Avenue, Brooklyn",40.6316373,-73.995203
45,Gobo's Cafe,ChIJAREfbUlFwokRyc0APiYVMbM,5.0,"['restaurant', 'food', 'point_of_interest', 'establishment']",5.0,,,"5421 New Utrecht Avenue, Brooklyn",40.6315888,-73.995292
46,Kim Ess Doo,ChIJo8qv7ZZFwokRDyIWbbdbAT4,4.5,"['restaurant', 'food', 'point_of_interest', 'establishment']",118.0,1.0,,"5507 13th Avenue, Brooklyn",40.6312492,-73.9957671
47,"Luzee Takeout, Kosher Deli, Catering",ChIJNTbi2zFFwokRToG0YfqOGRQ,5.0,"['restaurant', 'food', 'point_of_interest', 'establishment']",38.0,,,"5421 New Utrecht Avenue # A, Brooklyn",40.63162839999999,-73.9952991
48,Wing Xin Chinese Restaurant Chinese Food & Texas-Mexican Food,ChIJy95n7zpFwokRC1bsob6uChw,,"['restaurant', 'food', 'point_of_interest', 'establishment']",,,,"60th Street, Brooklyn",40.62735289999999,-73.9963242
49,Win Xin,ChIJtejB8xpcwokRK7EjGyvcEkQ,4.0,"['meal_delivery', 'restaurant', 'food', 'point_of_interest', 'establishment']",92.0,1.0,,"6001 14th Avenue, Brooklyn",40.6272884,-73.9963057
51,Panino Toasty Delicious,ChIJSWKSekpFwokRWTVZwsreS_I,4.7,"['restaurant', 'food', 'point_of_interest', 'establishment']",121.0,,,"5401 13th Avenue, Brooklyn",40.6320159,-73.994917
52,Dips,ChIJw1JEHC5FwokRP1qIrecfA1Y,4.8,"['restaurant', 'food', 'point_of_interest', 'store', 'establishment']",572.0,2.0,,"5315 13th Avenue, Brooklyn",40.632276,-73.99451499999999
53,El Buffalito Grill,ChIJabGJkjpFwokRkXKSVYGqmmY,3.7,"['restaurant', 'food', 'point_of_interest', 'establishment']",58.0,1.0,,"6012 New Utrecht Avenue, Brooklyn",40.627398,-73.996901
54,Urbana,ChIJVVUBBi5FwokR50VGU0rFcT0,4.5,"['restaurant', 'food', 'point_of_interest', 'establishment']",477.0,2.0,,"1305 53rd Street, Brooklyn",40.632668699999996,-73.9940434
55,Meisner's Take Home Food,ChIJt5U95jFFwokRWg58GhTaYsk,4.8,"['restaurant', 'food', 'point_of_interest', 'establishment']",46.0,,,"5410 New Utrecht Avenue, Brooklyn",40.6321993,-73.9955413
56,Ess&Bentch Boro Park,ChIJhcDp_s1FwokRSCI0LfhNgSY,4.4,"['restaurant', 'food', 'point_of_interest', 'establishment']",59.0,,,"5326 13th Avenue, Brooklyn",40.6324499,-73.99506339999999
57,Sub Express,ChIJ39jfBi5FwokRONL9Vx5uW7w,4.1,"['meal_delivery', 'restaurant', 'food', 'point_of_interest', 'store', 'establishment']",480.0,2.0,,"5217 13th Avenue, Brooklyn",40.6328756,-73.9941569
58,MASBIA of Boro Park,ChIJhTda7zFFwokR07qPxM-5SeA,4.3,"['restaurant', 'food', 'point_of_interest', 'establishment']",40.0,,,"5402 New Utrecht Avenue, Brooklyn",40.63236,-73.995519
59,Schnitzi,ChIJFWip-jFFwokR2VEXLlzEA6Y,4.5,"['restaurant', 'food', 'point_of_interest', 'establishment']",438.0,1.0,,"5326 New Utrecht Avenue, Brooklyn",40.632639,-73.995474
60,Juice for Life,ChIJT1Vt4NVhwokRv2MUNzx674Y,4.0,"['restaurant', 'food', 'point_of_interest', 'establishment']",108,2.0,,"34-7 Francis Lewis Boulevard, Flushing",40.76602549999999,-73.78932800000001
61,Primo Amore,ChIJt2gMetZhwokR71Kofl5Tlu0,4.4,"['restaurant', 'food', 'point_of_interest', 'establishment']",141,2.0,,"34-33 Francis Lewis Boulevard, Flushing",40.76548560000001,-73.7887476
62,Subway,ChIJCSjXP21hwokR6SzZPRXDb2M,3.1,"['meal_takeaway', 'restaurant', 'food', 'point_of_interest', 'establishment']",8,1.0,,"34-01 Francis Lewis Boulevard, Queens",40.7661075,-73.7893027
63,57's All American Grill,ChIJ765F-9VhwokRPmILiQeVTBI,4.3,"['restaurant', 'food', 'point_of_interest', 'establishment']",220,2.0,,"33-45 Francis Lewis Boulevard, Queens",40.7663653,-73.7895133
64,Cha Lom Thai Restaurant,ChIJB1cOrSZhwokRFf277fCHdLw,4.7,"['restaurant', 'food', 'point_of_interest', 'establishment']",13,,,"33-47 Francis Lewis Boulevard, Queens",40.7663135,-73.7893941
65,Kings Box,ChIJW4nphRRhwokRr1Z4eHuZ-YQ,4.8,"['restaurant', 'food', 'point_of_interest', 'establishment']",8,,,"33-41 Francis Lewis Boulevard, Queens",40.766465,-73.789509
66,Yummy Noodle House 粥麵之家,ChIJz__1TsphwokR0jywVu1dqOM,4.4,"['meal_takeaway', 'restaurant', 'food', 'point_of_interest', 'establishment']",162,,,"33-35 Francis Lewis Boulevard, Queens",40.7666165,-73.7896239
67,Graziella Pizza,ChIJR4Ym99VhwokR0w7llLPbqSA,4.4,"['meal_delivery', 'restaurant', 'food', 'point_of_interest', 'establishment']",159,,,"33-25 Francis Lewis Boulevard, Flushing",40.766783,-73.789816
68,Graziella Restaurant,ChIJp_Yt99VhwokRnY8NKPPDKt8,4.5,"['restaurant', 'food', 'point_of_interest', 'establishment']",60,2.0,,"33-29 Francis Lewis Boulevard, Flushing",40.76676459999999,-73.78971580000001
69,Yamato Sushi,ChIJVUvg9tVhwokRjdY5KXoUJOQ,4.2,"['restaurant', 'food', 'point_of_interest', 'establishment']",75,2.0,,"33-23 Francis Lewis Boulevard, Flushing",40.76684989999999,-73.7897685
70,C & W Brother Corporation,ChIJVUvg9tVhwokRKybPJeKPsa0,5.0,"['restaurant', 'food', 'point_of_interest', 'establishment']",1,,,"3323 Francis Lewis Boulevard, Flushing",40.76685080000001,-73.7897655
71,Sushi Village,ChIJkyuoZX-KwokRd1J0FM8uXAM,4.2,"['restaurant', 'food', 'point_of_interest', 'establishment']",747,2.0,,"3250 Francis Lewis Boulevard, Flushing",40.767623,-73.79106
72,Gyro Corner NYC,ChIJcUR6Z3-KwokR4qXJLrPHQaE,4.1,"['meal_delivery', 'restaurant', 'food', 'point_of_interest', 'establishment']",395,2.0,,"3269 Francis Lewis Boulevard, Flushing",40.76758330000001,-73.7903848
73,Taco Fun,ChIJMXEQZ3-KwokRxIooN7k1OOw,3.2,"['meal_delivery', 'restaurant', 'food', 'point_of_interest', 'establishment']",53,,,"3267 Francis Lewis Boulevard, Queens",40.7676157,-73.7904052
74,Fitrition,ChIJs6jMQ3-KwokRBiqC46Acb7s,4.2,"['restaurant', 'food', 'health', 'point_of_interest', 'store', 'establishment']",27,,,"32-55 Francis Lewis Boulevard, Flushing",40.76793199999999,-73.79025299999999
75,Dunkin',ChIJ86jX_NZhwokRzj9xPix5bEc,3.5,"['bakery', 'meal_takeaway', 'cafe', 'restaurant', 'food', 'point_of_interest', 'store', 'establishment']",129,1.0,,"3547 Francis Lewis Boulevard, Queens",40.7634683,-73.78622639999999
76,Dannas Deli And Pizzeria,ChIJfb4jmixgwokR05pd1hbH0Xc,4.4,"['restaurant', 'food', 'point_of_interest', 'establishment']",73,,,"169-08 Crocheron Avenue, Queens",40.762677,-73.796739
77,Pizzarama,ChIJNeeL1p5hwokRLjgdLa89w0o,4.2,"['meal_delivery', 'restaurant', 'food', 'point_of_interest', 'establishment']",105,1.0,,"3715 Francis Lewis Boulevard, Bayside",40.7628067,-73.7853343
78,Vinny's,ChIJb5o7336KwokRF8D8vxHdimw,4.5,"['meal_delivery', 'restaurant', 'food', 'point_of_interest', 'establishment']",100,2.0,,"19901 32nd Avenue, Queens",40.76968830000001,-73.7901684
79,Great Wall,ChIJWxD60H6KwokRPFAumpeyT-U,3.8,"['restaurant', 'food', 'point_of_interest', 'establishment']",51,2.0,,"19919 32nd Avenue, Flushing",40.7697897,-73.7894882
80,live seafood restaurant(활어마을),ChIJaWejrkhhwokRgc2N6UIwuHc,,"['restaurant', 'food', 'point_of_interest', 'establishment']",,,,"188-15 Northern Boulevard, Queens",40.75804110000001,-73.79232259999999
81,The Sweet Sap,ChIJDemOuDRhwokRHZSIAhFqVl8,4.5,"['restaurant', 'food', 'point_of_interest', 'establishment']",144.0,2.0,,"189-11 Northern Boulevard, Queens",40.7580413,-73.791595
82,Muhsin's Halal Food,ChIJaRXFYc1hwokRLGRwpFhNfiY,4.2,"['restaurant', 'food', 'point_of_interest', 'establishment']",35.0,1.0,,"43-2-43-16 Utopia Parkway, Flushing",40.7575614,-73.79315129999999
83,Bonchon,ChIJfU4dbRhhwokRGqNykENmf0E,4.3,"['restaurant', 'food', 'point_of_interest', 'establishment']",67.0,2.0,,"189-08 Northern Boulevard, Flushing",40.75757779999999,-73.79164279999999
84,Taco Bell,ChIJOwJFXs1hwokR8FSExKOomjg,4.0,"['meal_takeaway', 'restaurant', 'food', 'point_of_interest', 'establishment']",1745.0,1.0,,"172-12 Northern Boulevard, Queens",40.7574239,-73.793505
85,Good Luck Kitchen Chinese Cuisine,ChIJUxbP6EthwokRjR2oEymZMGM,5.0,"['restaurant', 'food', 'point_of_interest', 'establishment']",1.0,,,"171 Northern Boulevard, Flushing",40.7581313,-73.79513279999999
86,Sushi Takeout Enjoy,ChIJz5JqVC1gwokR6Jp8ou0Ro3g,4.5,"['restaurant', 'food', 'point_of_interest', 'establishment']",97.0,,,"171-15A Northern Boulevard, Flushing",40.758088,-73.7952444
87,粤唯鮮 Good Luck Kitchen,ChIJxw7xTJVhwokRzY-tqf5ffaY,4.0,"['restaurant', 'food', 'point_of_interest', 'establishment']",1.0,,,"171-03 Northern Boulevard, Flushing",40.7582005,-73.7954668
88,Ssam Meat House,ChIJ2eJZVy1gwokRsitq3bVcsVY,4.3,"['restaurant', 'food', 'point_of_interest', 'establishment']",38.0,,,"171-03 Northern Boulevard, Flushing",40.7582005,-73.7954668
89,Basak Chicken,ChIJCYtFVy1gwokRUS7jmnhzjus,3.8,"['restaurant', 'food', 'point_of_interest', 'establishment']",105.0,2.0,,"171-07 Northern Boulevard, Flushing",40.75821790000001,-73.7955243
90,San Soo Kap San 2 | Korean BBQ Flushing | Korean Restaurant Flushing NY | 산수갑산2,ChIJvSOiqDJgwokRVhT16lyf-WU,4.1,"['restaurant', 'food', 'point_of_interest', 'establishment']",508.0,2.0,,"171-10 Northern Boulevard, Flushing",40.75777399999999,-73.795518
91,Pizza Garden,ChIJD336WS1gwokR-59wtTy8JwQ,4.3,"['meal_delivery', 'restaurant', 'food', 'point_of_interest', 'establishment']",270.0,1.0,,"17101 Northern Boulevard, Flushing",40.75826530000001,-73.7956502
92,Kyedong KONO Chicken,ChIJsfzM-iNgwokRljAKGRMbaNU,3.3,"['restaurant', 'food', 'point_of_interest', 'establishment']",74.0,,,"171-02 Northern Boulevard, Flushing",40.757805,-73.795649
93,Nyx Nox,ChIJlY8j9tFhwokRfV2QUQEx2qQ,,"['restaurant', 'food', 'point_of_interest', 'establishment']",,,,"19210 Northern Boulevard, Flushing",40.7576255,-73.7889837
94,Hashi,ChIJZaM9-NFhwokRY7STVUcfsY0,4.0,"['restaurant', 'food', 'point_of_interest', 'establishment']",306.0,2.0,,"192-12 Northern Boulevard, Flushing",40.75763279999999,-73.7889
95,Manna Catering,ChIJhfRGOmlhwokRWnjJDcPe4Iw,4.0,"['meal_takeaway', 'restaurant', 'food', 'point_of_interest', 'establishment']",4.0,,,"192-20 Northern Boulevard, Flushing",40.75770119999999,-73.7886175
96,Pho Che,ChIJjy827tFhwokRYU12lG3gr-4,4.5,"['restaurant', 'food', 'point_of_interest', 'establishment']",368.0,1.0,,"193-16 Northern Boulevard, Flushing",40.7576163,-73.7878461
97,Papa John's Pizza,ChIJLces2d9hwokRaCJ4qlewVaw,3.7,"['restaurant', 'food', 'point_of_interest', 'establishment']",76.0,1.0,,"19318 Northern Boulevard, Queens",40.75759730000001,-73.78773749999999
98,El Patron,ChIJxfmO6tFhwokRs9wFEbxtBo8,4.2,"['bar', 'restaurant', 'food', 'point_of_interest', 'establishment']",980.0,2.0,,"194-01 Northern Boulevard, Flushing",40.7581382,-73.7875306
99,Galbi Ma Eul,ChIJ_444udFhwokR0uYQ3vIXtJg,4.1,"['restaurant', 'food', 'point_of_interest', 'establishment']",251.0,2.0,,"19403 Northern Boulevard, Flushing",40.75805,-73.7874361
100,Subway,ChIJM4vFoBhgwokRIwYgG5ANuh8,3.3,"['meal_takeaway', 'restaurant', 'food', 'point_of_interest', 'establishment']",54.0,1.0,,"147-16 Northern Boulevard, Queens",40.765034,-73.81863229999999
101,Star Mini Mart,ChIJSYvFoBhgwokRSItH5Cw4T2g,,"['convenience_store', 'restaurant', 'food', 'point_of_interest', 'store', 'establishment']",,,,"14716 Northern Boulevard, Flushing",40.7650739,-73.8186596
102,X-tra Cheese Pizza,ChIJ07UBCiJgwokReeuALFCHd-g,4.4,"['meal_delivery', 'restaurant', 'food', 'point_of_interest', 'establishment']",150.0,1.0,,"14720 Northern Boulevard, Flushing",40.76509399999999,-73.81847599999999
103,Dynasty Chinese Restaurant,ChIJ1RYvECJgwokRYI3212ZOqiQ,3.6,"['meal_delivery', 'restaurant', 'food', 'point_of_interest', 'establishment']",48.0,1.0,,"147-18 Northern Boulevard, Flushing",40.7651034,-73.8185009
104,Appetizing Grill 串江湖,ChIJe9SOoZxhwokRXRf434paxto,4.5,"['restaurant', 'food', 'point_of_interest', 'establishment']",35.0,,,"14734B Northern Boulevard, Flushing",40.76510489999999,-73.8178093
105,Tacos Bravos,ChIJB9I4U49hwokRy6zl5kyM-FA,4.3,"['restaurant', 'food', 'point_of_interest', 'establishment']",52.0,,,"146 St &, Northern Boulevard, Flushing",40.7651246,-73.82051919999999
106,Sandwich King Deli,ChIJbdy4wRhgwokRqknB_e37t_g,3.7,"['grocery_or_supermarket', 'restaurant', 'food', 'point_of_interest', 'store', 'establishment']",51.0,,,"146-25 Northern Boulevard, Flushing",40.765409,-73.819684
107,Dunkin',ChIJoRBsvxhgwokRuw_LDEuIhzg,4.0,"['bakery', 'meal_takeaway', 'cafe', 'restaurant', 'food', 'point_of_interest', 'store', 'establishment']",285.0,1.0,,"14625 Northern Boulevard, Queens",40.7654244,-73.8197989
108,Gossip House-韩国料理,ChIJvUA0ECJgwokR8E4fkoJykzk,4.4,"['restaurant', 'food', 'point_of_interest', 'establishment']",93.0,,,"147-46 Northern Boulevard, Flushing",40.7651983,-73.8175455
109,Yi Jia Kitchen 忆家馆,ChIJHyDE6o9hwokRJ63kvTYEt7k,4.9,"['restaurant', 'food', 'point_of_interest', 'establishment']",19.0,,,"14748 Northern Boulevard, Flushing",40.765208799999996,-73.8174595
110,Saigon Dumpling,ChIJJSKifhlhwokR-W09-WzMQxs,,"['restaurant', 'food', 'point_of_interest', 'establishment']",,,,"Northern Boulevard, Flushing",40.76539950000001,-73.8175923
111,New York K-BBQ,ChIJy6XR4sJhwokRyp_7VMom884,4.1,"['restaurant', 'food', 'point_of_interest', 'establishment']",57.0,,,"149-06 Northern Boulevard, Flushing",40.7651402,-73.8168639
112,Domino's Pizza,ChIJgZN4IiJgwokRy4YIkSN2_SM,2.5,"['meal_delivery', 'meal_takeaway', 'restaurant', 'food', 'point_of_interest', 'establishment']",501.0,1.0,,"14909 Northern Boulevard, Queens",40.7655942,-73.81696149999999
113,Sam Won Gahk,ChIJM_jnmBlgwokRCHxrZQrFbHM,4.0,"['bar', 'restaurant', 'food', 'point_of_interest', 'establishment']",457.0,2.0,,"144-20 Northern Boulevard, Flushing",40.76459500000001,-73.822557
114,天府小串城 Tianfu BBQ,ChIJD_WveSRhwokRyXt-bG4tUgU,3.9,"['restaurant', 'food', 'point_of_interest', 'establishment']",39.0,,,"144-18 Northern Boulevard, Flushing",40.7646115,-73.8226722
115,Hongdae Korean restaurant (POCHA),ChIJVfOiraVhwokRASKpovthVP8,4.8,"['restaurant', 'food', 'point_of_interest', 'establishment']",22.0,,,"14909 41st Avenue, Flushing",40.7623762,-73.8155428
116,Panda King,ChIJpVQb4iJgwokRtYxerBszZoY,3.6,"['meal_delivery', 'restaurant', 'food', 'point_of_interest', 'establishment']",57.0,1.0,,"149-11 41st Avenue, Flushing",40.7623787,-73.8154856
117,Gupji,ChIJc926HyNgwokRDDEZkOLKdqI,4.5,"['restaurant', 'food', 'point_of_interest', 'establishment']",120.0,2.0,,"149-11 41st Avenue, Flushing",40.76237989999999,-73.8154848
118,Tianfulao,ChIJ8e1yCxlgwokRurXYAmJfvUo,4.0,"['restaurant', 'food', 'point_of_interest', 'establishment']",18.0,,,"144-18 Northern Boulevard, Queens",40.7646948,-73.822822
119,Keum Sung,ChIJyw_bqSNgwokRsukMjByJjxQ,4.1,"['restaurant', 'food', 'point_of_interest', 'establishment']",172.0,2.0,,"40-07 149th Place, Queens",40.7632485,-73.8150373
120,Jamaica Breeze,ChIJARkywpRfwokRqdOAXUukomI,4.1,"['restaurant', 'food', 'point_of_interest', 'establishment']",342,2.0,,"103-02 Astoria Boulevard, East Elmhurst",40.7611008,-73.8661345
121,Lung Sing,ChIJjXnU-b9fwokREXnUM0cxa_8,3.8,"['meal_delivery', 'restaurant', 'food', 'point_of_interest', 'establishment']",47,1.0,,"103-07 Northern Boulevard, Flushing",40.75788120000001,-73.8653423
122,Tacos Mexico,ChIJG-tF5L9fwokRHB-8QBgncgg,3.4,"['meal_delivery', 'meal_takeaway', 'restaurant', 'food', 'point_of_interest', 'establishment']",263,2.0,,"10203 Northern Boulevard, Corona",40.7577778,-73.86638889999999
123,Northern Café Grill & Chimi,ChIJefeBwr9fwokRSRDfsWm9Y80,4.4,"['meal_delivery', 'cafe', 'restaurant', 'food', 'point_of_interest', 'establishment']",71,1.0,,"101-13 Northern Boulevard, Corona",40.75772149999999,-73.8669408
124,Carniceria Mexicana,ChIJN3PsnOpfwokRh1EMo76Lnlg,4.3,"['meal_delivery', 'restaurant', 'food', 'point_of_interest', 'establishment']",77,,,"10509 Northern Boulevard, Corona",40.7579369,-73.8633275
125,The Holy Grill,ChIJSU8cAwtfwokR_3zN8CDyPwo,4.7,"['restaurant', 'food', 'point_of_interest', 'establishment']",66,,,"104-02 Northern Boulevard, Queens",40.757397,-73.864443
126,El Nuevo Salinas,ChIJ4ejN7b9fwokRc6x_qGUQUEs,3.5,"['bar', 'restaurant', 'food', 'point_of_interest', 'establishment']",139,2.0,,"102-02 Northern Boulevard, Flushing",40.7573485,-73.8663637
127,Cibao,ChIJ3_9RIsBfwokRdJmXacEn54s,4.4,"['restaurant', 'food', 'point_of_interest', 'establishment']",7,,,"10422 Northern Boulevard, Flushing",40.7574466,-73.86378429999999
128,Plaza Deli,ChIJ9XP1wL9fwokRjvbJeyWedO0,4.1,"['restaurant', 'food', 'point_of_interest', 'establishment']",11,,,"101-06 Northern Boulevard, Corona",40.75731969999999,-73.8672168
129,Montañita Restaurant,ChIJXYFoUOhfwokRsjNdtWxeig4,4.4,"['restaurant', 'bar', 'food', 'point_of_interest', 'establishment']",18,,,"100 14 Northern Boulevard, Corona",40.7571871,-73.867761
130,El Manto,ChIJXWPK1PZfwokRBwnyZdjKCEU,4.9,"['restaurant', 'food', 'point_of_interest', 'establishment']",13,,,"100-15 Astoria Boulevard, East Elmhurst",40.762125,-73.868707
131,Lucky's Queens,ChIJj2cRXZRfwokR36kKdVSSQLM,3.9,"['restaurant', 'food', 'point_of_interest', 'establishment']",59,,,"100-11 Astoria Boulevard, Flushing",40.7621109,-73.8687729
132,No.1,ChIJTbut1cFfwokRRvWBl2RaDUU,3.7,"['meal_delivery', 'restaurant', 'food', 'point_of_interest', 'establishment']",65,1.0,,"106-14 Northern Boulevard, Flushing",40.7575317,-73.8622547
133,El Pailon,ChIJOUpq9R9fwokRK42ZL1YG1zg,5.0,"['restaurant', 'food', 'point_of_interest', 'establishment']",1,,,"100-08 Northern Boulevard, Corona",40.7571311,-73.86803309999999
134,Dunkin',ChIJR99FXJRfwokR7ngMJEPkHpo,4.0,"['bakery', 'meal_takeaway', 'cafe', 'restaurant', 'food', 'point_of_interest', 'store', 'establishment']",356,1.0,,"10009 Astoria Boulevard, Queens",40.7621852,-73.8689198
135,Capelli's Cafe,ChIJQ3ZQcepfwokRxTKF_RjrKEY,4.1,"['restaurant', 'food', 'point_of_interest', 'establishment']",99,,,"107-11 Northern Boulevard, Corona",40.75804309999999,-73.8614523
136,Caridad Restaurant,ChIJT5LwtL9fwokRBvt-jf1kU6g,4.0,"['meal_delivery', 'restaurant', 'food', 'point_of_interest', 'establishment']",472,2.0,,"100-02 Northern Boulevard, Flushing",40.7570462,-73.8682449
137,Manta Llave Del Mar,ChIJ84OiSL5fwokR1Qam-Ig9uik,3.5,"['restaurant', 'food', 'point_of_interest', 'establishment']",11,,,"9912 Northern Boulevard, Flushing",40.7571443,-73.8690129
138,El TRI MX Restaurant & Bar,ChIJT5pF0jFfwokRPEkXGd6AJQc,4.0,"['restaurant', 'food', 'point_of_interest', 'establishment']",12,,,"99-12 Northern Boulevard, Corona",40.7570511,-73.8689522
139,La Esquina del Sabor,ChIJP1qkOL5fwokRU7LiH3xl2O0,4.2,"['meal_delivery', 'restaurant', 'food', 'point_of_interest', 'establishment']",155,2.0,,"99-01 Northern Boulevard, Corona",40.7573198,-73.8694951
140,Dunkin',ChIJV4aQ3JlfwokRP8l21pdIKiM,3.7,"['bakery', 'meal_takeaway', 'cafe', 'restaurant', 'food', 'point_of_interest', 'store', 'establishment']",6.0,1.0,,"Gulf Gas Station, 10801 Grand Central Parkway, Queens",40.7654047,-73.86196
141,Capelli's Cafe,ChIJQ3ZQcepfwokRxTKF_RjrKEY,4.1,"['restaurant', 'food', 'point_of_interest', 'establishment']",99.0,,,"107-11 Northern Boulevard, Corona",40.75804309999999,-73.8614523
142,Jamaica Breeze,ChIJARkywpRfwokRqdOAXUukomI,4.1,"['restaurant', 'food', 'point_of_interest', 'establishment']",342.0,2.0,,"103-02 Astoria Boulevard, East Elmhurst",40.7611008,-73.8661345
143,Rainhas Churrascaria,ChIJ-7bbDOpfwokRVEQ5e9q98gc,4.4,"['night_club', 'bar', 'restaurant', 'food', 'point_of_interest', 'establishment']",2507.0,2.0,,"108-01 Northern Boulevard, Corona",40.75801089999999,-73.8606262
144,111 Deli Stop Corp,ChIJTyzC8-lfwokRkveBjFcVaeQ,4.7,"['restaurant', 'food', 'point_of_interest', 'establishment']",21.0,,,"110-21 Northern Boulevard, Flushing",40.758171,-73.859079
145,New York,ChIJ0XMLu6BfwokRXSIC2irIzUs,,"['restaurant', 'food', 'point_of_interest', 'establishment']",,,,"32-37 112th Street, Flushing",40.7584098,-73.8577306
146,La Roja de Todos,ChIJIedJCupfwokRGzjPd3NSju8,4.5,"['restaurant', 'food', 'point_of_interest', 'establishment']",178.0,,,"10802 Northern Boulevard, Corona",40.7576299,-73.8607656
147,El Fogon Costeno,ChIJPW1mAepfwokR35sAyNNj6e0,4.3,"['restaurant', 'food', 'point_of_interest', 'establishment']",355.0,2.0,,"10912 Northern Boulevard #1344, Corona",40.7577,-73.8598833
148,Carniceria Mexicana,ChIJN3PsnOpfwokRh1EMo76Lnlg,4.3,"['meal_delivery', 'restaurant', 'food', 'point_of_interest', 'establishment']",77.0,,,"10509 Northern Boulevard, Corona",40.7579369,-73.8633275
149,No.1,ChIJTbut1cFfwokRRvWBl2RaDUU,3.7,"['meal_delivery', 'restaurant', 'food', 'point_of_interest', 'establishment']",65.0,1.0,,"106-14 Northern Boulevard, Flushing",40.7575317,-73.8622547
150,Polanco's,ChIJNeBbaMFfwokRGVDgvMfKz_o,4.2,"['meal_delivery', 'restaurant', 'food', 'point_of_interest', 'establishment']",100.0,,,"33-13 108th Street, Corona",40.7573501,-73.8607229
151,Cibao,ChIJ3_9RIsBfwokRdJmXacEn54s,4.4,"['restaurant', 'food', 'point_of_interest', 'establishment']",7.0,,,"10422 Northern Boulevard, Flushing",40.7574466,-73.86378429999999
152,Lung Sing,ChIJjXnU-b9fwokREXnUM0cxa_8,3.8,"['meal_delivery', 'restaurant', 'food', 'point_of_interest', 'establishment']",47.0,1.0,,"103-07 Northern Boulevard, Flushing",40.75788120000001,-73.8653423
153,The Holy Grill,ChIJSU8cAwtfwokR_3zN8CDyPwo,4.7,"['restaurant', 'food', 'point_of_interest', 'establishment']",66.0,,,"104-02 Northern Boulevard, Queens",40.757397,-73.864443
154,El Manto,ChIJXWPK1PZfwokRBwnyZdjKCEU,4.9,"['restaurant', 'food', 'point_of_interest', 'establishment']",13.0,,,"100-15 Astoria Boulevard, East Elmhurst",40.762125,-73.868707
155,Tacos Mexico,ChIJG-tF5L9fwokRHB-8QBgncgg,3.4,"['meal_delivery', 'meal_takeaway', 'restaurant', 'food', 'point_of_interest', 'establishment']",263.0,2.0,,"10203 Northern Boulevard, Corona",40.7577778,-73.86638889999999
156,Lucky's Queens,ChIJj2cRXZRfwokR36kKdVSSQLM,3.9,"['restaurant', 'food', 'point_of_interest', 'establishment']",59.0,,,"100-11 Astoria Boulevard, Flushing",40.7621109,-73.8687729
157,Dunkin',ChIJR99FXJRfwokR7ngMJEPkHpo,4.0,"['bakery', 'meal_takeaway', 'cafe', 'restaurant', 'food', 'point_of_interest', 'store', 'establishment']",356.0,1.0,,"10009 Astoria Boulevard, Queens",40.7621852,-73.8689198
158,El Nuevo Salinas,ChIJ4ejN7b9fwokRc6x_qGUQUEs,3.5,"['bar', 'restaurant', 'food', 'point_of_interest', 'establishment']",139.0,2.0,,"102-02 Northern Boulevard, Flushing",40.7573485,-73.8663637
159,Dunkin',ChIJEbpoUe1fwokRwl1fgHkevWE,3.9,"['bakery', 'meal_takeaway', 'cafe', 'restaurant', 'food', 'point_of_interest', 'store', 'establishment']",240.0,1.0,,"10702 Grand Central Parkway East, Queens",40.7673876,-73.86498399999999
160,LaGuardia Cafe,ChIJpYkHxJFfwokRoi4v1kiHPEs,4.2,"['meal_delivery', 'restaurant', 'food', 'point_of_interest', 'establishment']",602.0,1.0,,"97-02 23rd Avenue, New York",40.76828690000001,-73.8732292
161,Mobile food supplier ( food cart),ChIJAV4c6XpfwokRuQhGmWRh4iE,5.0,"['restaurant', 'food', 'point_of_interest', 'establishment']",1.0,,,"99-11 Ditmars Boulevard, Flushing",40.7703924,-73.8707434
162,Halal cart,ChIJH3oyKfFfwokRdcLaTGiUIC4,,"['restaurant', 'food', 'point_of_interest', 'establishment']",,,,"99-11 Ditmars Boulevard, East Elmhurst",40.7703964,-73.8707117
163,86 Express,ChIJHY9-IZhfwokRO2oj6QskWn8,5.0,"['restaurant', 'food', 'point_of_interest', 'establishment']",3.0,,,East Elmhurst,40.76797060000001,-73.876334
164,Pavilion Grille,ChIJaSfIlZJfwokRH7C98QO0TQE,3.4,"['restaurant', 'food', 'point_of_interest', 'establishment']",45.0,,,"104-04 Ditmars Boulevard, East Elmhurst",40.7671571,-73.8671664
165,Sam hottel,ChIJ7bV2qeZfwokRRGp8s9i6_cM,,"['restaurant', 'food', 'point_of_interest', 'establishment']",,,,"104-04 Ditmars Boulevard, Flushing",40.76700820000001,-73.8670454
166,Crust,ChIJxb1oA41fwokRrcsQkKJ5Wjc,3.4,"['restaurant', 'food', 'point_of_interest', 'establishment']",10.0,,,"Terminal C, LaGuardia Airport Entrance, East Elmhurst",40.77050560000001,-73.8677443
167,Lucky Star,ChIJeY1CH5dfwokRB7Xk0nfybHc,3.9,"['meal_delivery', 'restaurant', 'food', 'point_of_interest', 'establishment']",65.0,2.0,,"94-19 Astoria Boulevard, Queens",40.763095,-73.87443999999999
168,Tacos Sante Fe,ChIJMRikIpdfwokRjR9XxNEb5fM,3.2,"['restaurant', 'food', 'point_of_interest', 'establishment']",18.0,,,"9407 Astoria Boulevard, East Elmhurst",40.76318,-73.8749213
169,Ven Santa Fe,ChIJMRikIpdfwokRnZ7BfCeVSQk,3.7,"['meal_delivery', 'restaurant', 'food', 'point_of_interest', 'establishment']",98.0,,,"9407 Astoria Boulevard, East Elmhurst",40.76318,-73.8749213
170,Cafe Grill,ChIJTzjI7pZfwokRouhEEB3T5IE,4.8,"['meal_delivery', 'restaurant', 'food', 'point_of_interest', 'establishment']",64.0,,,"2602 96th Street, East Elmhurst",40.7625784,-73.8732445
171,Cafe Algo Mas,ChIJzbE1IpRfwokRWns14wJLEt4,4.4,"['restaurant', 'bakery', 'food', 'point_of_interest', 'store', 'establishment']",51.0,,,"9813 Astoria Boulevard, Flushing",40.76249069999999,-73.87085019999999
172,Nuevo Barzola Fusion,ChIJ4SKaeP5fwokReygwbA3U8O4,4.1,"['restaurant', 'food', 'point_of_interest', 'establishment']",8.0,,,"95-20 Astoria Boulevard, East Elmhurst",40.7624589,-73.87339330000002
173,Barzola,ChIJAY7iVQNfwokR-dHjYN5BTRQ,4.1,"['restaurant', 'food', 'point_of_interest', 'establishment']",317.0,,,"95-20 Astoria Boulevard, East Elmhurst",40.762455,-73.873392
174,Cali Aji,ChIJheZgIZRfwokRHuhcXBonb_w,4.5,"['meal_delivery', 'restaurant', 'food', 'point_of_interest', 'establishment']",474.0,1.0,,"98-15 Astoria Boulevard, East Elmhurst",40.762438,-73.87074009999999
175,Buccaneer Diner,ChIJIdl5QpdfwokRB2Ajbz5eRJw,4.2,"['bar', 'restaurant', 'food', 'point_of_interest', 'establishment']",1613.0,1.0,,"93-01 Astoria Boulevard, East Elmhurst",40.7633468,-73.8761736
176,Dunkin',ChIJ0ZwMrIlfwokREH27D0vbI0g,3.4,"['bakery', 'meal_takeaway', 'cafe', 'restaurant', 'food', 'point_of_interest', 'store', 'establishment']",71.0,1.0,,"Grand Central Parkway, Queens",40.76740209999999,-73.864986
179,Shell,ChIJOfciYpdfwokR5yhkSytlBU4,3.7,"['gas_station', 'atm', 'convenience_store', 'finance', 'restaurant', 'food', 'point_of_interest', 'store', 'establishment']",72.0,2.0,,"92-10 Astoria Boulevard, East Elmhurst",40.763063700000004,-73.8769358
180,Burger King,ChIJ-a1M4G1hwokR-ZkRPOkaAUI,3.5,"['restaurant', 'food', 'point_of_interest', 'establishment']",225.0,1.0,,"195-10 Jamaica Avenue, Queens",40.7130491,-73.7655544
181,Mama’s fried chicken,ChIJYXRbBW5hwokRRTeRWDrE09I,,"['restaurant', 'food', 'point_of_interest', 'establishment']",,,,"195-29 Jamaica Avenue, Hollis",40.7134296,-73.7647652
182,Ho Wah China Wok INC.,ChIJZ3c0D25hwokRwYyIzJlFwZQ,3.6,"['meal_delivery', 'restaurant', 'food', 'point_of_interest', 'establishment']",52.0,1.0,,"19519 Jamaica Avenue, Jamaica",40.7134235,-73.7652968
183,Safari,ChIJnUMhKW5hwokRBrEl56i3_fQ,4.3,"['bar', 'restaurant', 'food', 'point_of_interest', 'establishment']",25.0,,,Hollis,40.71351989999999,-73.7630272
184,El Palo,ChIJkQ2LKW5hwokRw6BqzNsOXG0,3.6,"['bar', 'restaurant', 'food', 'point_of_interest', 'establishment']",40.0,,,"19625 Jamaica Avenue, Jamaica",40.7135338,-73.76292579999999
185,A-C Market Grocery and flowers and Sándwich and tacos food Mexica,ChIJt0JBm5hhwokRxhzSWYWidhw,4.0,"['restaurant', 'food', 'point_of_interest', 'establishment']",1.0,,,"91-32 197th Street, Queens",40.71368869999999,-73.7628857
186,No Limit Lounge NYC,ChIJByyY1W9hwokRwZApW9TicbE,4.3,"['night_club', 'bar', 'restaurant', 'food', 'point_of_interest', 'establishment']",18.0,,,"197-15 Jamaica Avenue, Queens",40.7135762,-73.762256
187,Ncloud69 Lounge & Restaurant,ChIJ2VzWPDlhwokR4bIjmqaEQKU,5.0,"['restaurant', 'food', 'point_of_interest', 'establishment']",1.0,,,"197-15 Jamaica Avenue, Jamaica",40.7135899,-73.7622714
188,Ncloud Restaurant & lounge,ChIJ7eg7lfxhwokRu-gGOvuonMo,5.0,"['restaurant', 'food', 'point_of_interest', 'establishment']",2.0,,,"197-15 Jamaica Avenue, Jamaica",40.7135899,-73.7622714
189,Food/Hookah,ChIJByyY1W9hwokRV3mUDLJqcOs,,"['restaurant', 'food', 'point_of_interest', 'establishment']",,,,"197-15 Jamaica Avenue, Jamaica",40.7135888,-73.76226659999999
190,Markie B's,ChIJuZqV3WxhwokRjifCtGbIwk4,3.8,"['restaurant', 'food', 'point_of_interest', 'establishment']",19.0,,,"189-09 Jamaica Avenue, Jamaica",40.71189399999999,-73.769938
191,Xin Xing Chinese Restaurant,ChIJ9zZsx2xhwokRnrZPttpWxNI,3.8,"['meal_delivery', 'restaurant', 'food', 'point_of_interest', 'establishment']",38.0,,,"188-13 Jamaica Avenue, Hollis",40.711256,-73.7705351
192,Crown Fried Chicken,ChIJ27MduGxhwokR8uQ_dqyxXxs,3.8,"['restaurant', 'food', 'point_of_interest', 'establishment']",65.0,1.0,,"18803 Jamaica Avenue, Hollis",40.7111591,-73.77073740000002
193,Imran Haider,ChIJw8H1J2ZhwokRKXrZ9OmJQ08,5.0,"['restaurant', 'food', 'point_of_interest', 'establishment']",1.0,,,"198 Hollis Avenue, St. Albans",40.7066122,-73.7595762
194,Dunkin',ChIJeb1wWhNhwokReos49-CmPWE,3.7,"['bakery', 'meal_takeaway', 'cafe', 'restaurant', 'food', 'point_of_interest', 'store', 'establishment']",341.0,1.0,,"18711 Jamaica Avenue, Queens",40.7105425,-73.7721468
195,Chef to Go Cuisine,ChIJ58UFdPthwokR9QTe8hbqdRU,4.6,"['restaurant', 'food', 'point_of_interest', 'establishment']",13.0,,,"198-19 Hollis Avenue, St. Albans",40.70652499999999,-73.75898699999999
196,Chris & Sons Roti Shop and Bakery,ChIJ33_XJGZhwokRWZyzMgyVm4k,4.7,"['meal_delivery', 'restaurant', 'food', 'point_of_interest', 'establishment']",238.0,1.0,,"198-21 Hollis Avenue, Jamaica",40.70645279999999,-73.75885
197,Hong Kong,ChIJ4T0ZTQ1hwokRA7r6hyDl98s,4.0,"['meal_delivery', 'restaurant', 'food', 'point_of_interest', 'establishment']",41.0,1.0,,"19012 Hillside Avenue, Hollis",40.7156633,-73.77137479999999
198,Tastee Jerk,ChIJSwruRGZhwokRnuKhaoDICY8,3.9,"['restaurant', 'food', 'point_of_interest', 'establishment']",86.0,1.0,,"20003 Hollis Avenue, New York",40.70638889999999,-73.7575
199,Cheung Hing Kitchen,ChIJzdcvNmZhwokRFP8tw2pEA-Q,3.9,"['meal_delivery', 'restaurant', 'food', 'point_of_interest', 'establishment']",53.0,2.0,,"19914 Hollis Avenue, New York",40.7059179,-73.75804
207,Popeyes Louisiana Kitchen,ChIJ-Y8vWnFhwokR60mxh1nMEI0,3.8,"['restaurant', 'food', 'point_of_interest', 'establishment']",261.0,1.0,,"19702 Hillside Avenue, Hollis",40.7182598,-73.76503149999999
211,Subway,ChIJ2WVQFndhwokRX0muD-g_Scw,4.3,"['meal_takeaway', 'restaurant', 'food', 'point_of_interest', 'establishment']",50.0,1.0,,"20206 Hillside Avenue, Queens",40.7198235,-73.7614626
212,Dunkin',ChIJE5eeG3dhwokRhlwtbqfIU68,3.2,"['bakery', 'meal_takeaway', 'cafe', 'restaurant', 'food', 'point_of_interest', 'store', 'establishment']",184.0,1.0,,"202-09 Hillside Avenue, Queens",40.720192,-73.7621106
213,Elena's,ChIJYU6PjnlhwokRgpk3RQB7koQ,4.2,"['restaurant', 'food', 'point_of_interest', 'establishment']",687.0,2.0,,"8948 Francis Lewis Boulevard, Queens Village",40.71833549999999,-73.7577031
214,Panda House,ChIJURWhcndhwokRYXWo_4DLkwg,3.5,"['meal_delivery', 'restaurant', 'food', 'point_of_interest', 'establishment']",62.0,1.0,,"204-02 Hillside Avenue, Hollis",40.7202482,-73.7609216
215,Jamaican Best,ChIJeTwEc3dhwokRLJKP-8lMb_0,4.0,"['meal_takeaway', 'lodging', 'restaurant', 'food', 'point_of_interest', 'establishment']",72.0,,,"204-08 Hillside Avenue, Queens",40.7202027,-73.76062809999999
216,Papa John's Pizza,ChIJcXx-hXlhwokRxu8raEC7zus,3.1,"['meal_delivery', 'restaurant', 'food', 'point_of_interest', 'establishment']",168.0,1.0,,"8953 Francis Lewis Boulevard, New York",40.71844040000001,-73.7571141
217,Crown Fried Chicken,ChIJ6zZxBhFhwokRaLj6m5McqDE,4.2,"['restaurant', 'food', 'point_of_interest', 'establishment']",177.0,1.0,,"204-20 Hillside Avenue, Jamaica",40.7204313,-73.7602902
218,McDonald's,ChIJ44_UcndhwokR63eq3oA9W_o,3.7,"['cafe', 'restaurant', 'food', 'point_of_interest', 'store', 'establishment']",326.0,1.0,,"204-11 Hillside Avenue, Queens",40.720814,-73.761147
219,Shogun Japan,ChIJeXZRgkxhwokRZCENpiBc9K0,4.6,"['restaurant', 'food', 'point_of_interest', 'establishment']",81.0,,,"20505 Hillside Avenue, Hollis",40.72112929999999,-73.76060140000001
222,Burger King,ChIJ-a1M4G1hwokR-ZkRPOkaAUI,3.5,"['restaurant', 'food', 'point_of_interest', 'establishment']",226.0,1.0,,"195-10 Jamaica Avenue, Queens",40.7130491,-73.7655544
235,No 1 Halal Kitchen,ChIJz2GHZBJhwokRWvaLabBPovw,3.8,"['restaurant', 'food', 'point_of_interest', 'establishment']",116.0,1.0,,"18714 New York 25, Hollis",40.71466940000001,-73.77465889999999
236,New Apple,ChIJvz7wYxJhwokR9uUvhklKpwk,5.0,"['restaurant', 'food', 'point_of_interest', 'establishment']",1.0,,,"18714 Hillside Avenue, Jamaica",40.71461099999999,-73.7746612
237,Laverite,ChIJ5aM9ZhJhwokRZxZNlsAsFqw,4.0,"['bar', 'restaurant', 'food', 'point_of_interest', 'establishment']",6.0,,,"18704 Hillside Avenue, Jamaica",40.71459699999999,-73.7750262
238,Dunkin',ChIJeb1wWhNhwokReos49-CmPWE,3.7,"['bakery', 'meal_takeaway', 'cafe', 'restaurant', 'food', 'point_of_interest', 'store', 'establishment']",342.0,1.0,,"18711 Jamaica Avenue, Queens",40.7105425,-73.7721468
240,Edo,ChIJJaj_4uxEwokRNO-qxGTKjz0,4.3,"['meal_delivery', 'restaurant', 'food', 'point_of_interest', 'establishment']",164.0,2.0,,"2087 Coney Island Avenue, Brooklyn",40.606282,-73.961524
241,Myst Lounge,ChIJtRFs_uxEwokRu_Al3ti2inE,3.7,"['cafe', 'restaurant', 'food', 'point_of_interest', 'establishment']",164.0,2.0,,"2086 Coney Island Avenue, Brooklyn",40.606317,-73.962131
242,Bravo Kosher Pizza,ChIJSZdBb8dFwokRwJA7LVrSUnk,4.5,"['meal_delivery', 'restaurant', 'food', 'point_of_interest', 'establishment']",182.0,,,"902 Kings Highway, Brooklyn",40.60651619999999,-73.96351179999999
243,Big Apple F & V,ChIJ188NUexEwokRfb69eGQBwrI,,"['restaurant', 'food', 'point_of_interest', 'establishment']",,,,"924 Kings Highway, Brooklyn",40.606761,-73.962929
244,Dunkin',ChIJJ5AcGr5FwokRXwds7L9lRnk,,"['bakery', 'meal_takeaway', 'cafe', 'restaurant', 'food', 'point_of_interest', 'store', 'establishment']",,1.0,,"934 Kings Hwy West of, Coney Island Avenue, Brooklyn",40.6068799,-73.96269579999999
245,Jack Glatt Kosher,ChIJIZe1WexEwokR_3Q5iaAriIU,5.0,"['restaurant', 'food', 'point_of_interest', 'establishment']",3.0,,,"936 Kings Highway, Brooklyn",40.6068953,-73.96261969999999
246,Hummus Points One,ChIJRdOGSuxEwokRsxrqoVv2opA,5.0,"['restaurant', 'food', 'point_of_interest', 'establishment']",1.0,,,"822 Kings Highway, Brooklyn",40.6063271,-73.9642235
247,Cafe Renaissance,ChIJa131y-1EwokRoqYAP5ddMOM,4.5,"['restaurant', 'food', 'point_of_interest', 'establishment']",567.0,2.0,,"802 Kings Highway, Brooklyn",40.6063889,-73.96444439999999
248,Davry Kosher Sports Bar,ChIJxQsc0e1EwokRdVVvGbLRcDk,4.3,"['bar', 'restaurant', 'food', 'point_of_interest', 'establishment']",439.0,2.0,,"722 Kings Highway, Brooklyn",40.60617399999999,-73.96488599999999
249,Meisner Kosher Gourmet Catering,ChIJWXNFNuxEwokR_BT-1fzUrq0,,"['restaurant', 'food', 'point_of_interest', 'establishment']",,,,"815 Kings Highway, Brooklyn",40.6069314,-73.96403210000001
250,King Kitchen,ChIJGdYRXuxEwokRwu-E1wqctmA,,"['restaurant', 'food', 'point_of_interest', 'establishment']",,,,"1002 Quentin Road, Brooklyn",40.6075419,-73.96272309999999
251,Mirage Diner,ChIJu_RN0-1EwokRi6UpeOHv6zw,4.2,"['restaurant', 'food', 'point_of_interest', 'establishment']",1042.0,2.0,,"717 Kings Highway, Brooklyn",40.6065909,-73.9650468
252,Kosher Hut of Brooklyn,ChIJk8uF1e1EwokRZ6MDVMmqdAg,4.4,"['restaurant', 'food', 'point_of_interest', 'establishment']",70.0,1.0,,"709 Kings Highway, Brooklyn",40.60641890000001,-73.965305
253,Taco Bell,ChIJQeSzjuxEwokR02aHizHS4f8,3.1,"['meal_takeaway', 'restaurant', 'food', 'point_of_interest', 'establishment']",574.0,1.0,,"2026 Coney Island Avenue, Brooklyn",40.6076351,-73.9622053
254,MishMash Gourmet,ChIJk50ikuxEwokRyySuoR8ryuI,4.1,"['cafe', 'restaurant', 'food', 'point_of_interest', 'store', 'establishment']",107.0,2.0,,"1103 Kings Highway, Brooklyn",40.60765300000001,-73.961631
255,KFC,ChIJ6-WzjuxEwokRuIjrvqLVQu8,3.1,"['restaurant', 'food', 'point_of_interest', 'establishment']",583.0,1.0,,"2026 Coney Island Avenue, Brooklyn",40.6076531,-73.9622311
256,Fashion Kitchen,ChIJrycXh01FwokRfOcsrIqJb5U,5.0,"['restaurant', 'food', 'point_of_interest', 'establishment']",1.0,,,"1103 Kings Highway, Brooklyn",40.6076803,-73.96162919999999
257,Luna Kings Pizzeria,ChIJC3y1luxEwokRDJ0rMeKwemM,4.2,"['restaurant', 'food', 'point_of_interest', 'establishment']",108.0,1.0,,"1115 Kings Hwy, Brooklyn, NY 11229, Brooklyn",40.60774000000001,-73.961298
258,Rita's Italian Ice & Frozen Custard,ChIJ5UuxRXpFwokRUirjYt7DyDI,,"['restaurant', 'food', 'point_of_interest', 'store', 'establishment']",,1.0,,"1811 East 7th Street, Brooklyn",40.60642000000001,-73.96553
259,Sushi Tokyo,ChIJ3TKScO5EwokRvl2VGzU-GP8,4.1,"['meal_delivery', 'restaurant', 'food', 'point_of_interest', 'establishment']",772.0,2.0,,"627 Kings Highway, Brooklyn",40.60620079999999,-73.96580949999999
273,Mabat,ChIJm-nnfu5EwokRDBKxM2iJXJs,4.6,"['restaurant', 'food', 'point_of_interest', 'establishment']",314.0,2.0,,"1809 East 7th Street, Brooklyn",40.6064583,-73.96559010000001
280,Oasis Cafe,ChIJvQUmPV5EwokRK9nwNPF4t38,4.5,"['cafe', 'restaurant', 'food', 'point_of_interest', 'establishment']",309.0,2.0,,"2689 Coney Island Avenue, Brooklyn",40.5910115,-73.96037749999999
281,Romanoff,ChIJb54Myl9EwokRxRT8LT8jWDo,3.8,"['restaurant', 'food', 'point_of_interest', 'establishment']",234.0,,,"2670 Coney Island Avenue, Brooklyn",40.5914058,-73.9609299
282,Dynasty Restaurant & Catering,ChIJM9qaeulFwokReF2EylRJGwE,,"['restaurant', 'food', 'point_of_interest', 'establishment']",,,,"2670 Coney Island Avenue, Brooklyn",40.5914082,-73.960985
283,Foteh's Tandoori,ChIJwRWbuF9EwokR-df_E3vUgOQ,3.8,"['restaurant', 'food', 'point_of_interest', 'establishment']",247.0,1.0,,"2650 Coney Island Avenue, Brooklyn",40.5920209,-73.96099319999999
284,La Bella Pizza,ChIJR9xQx19EwokRU3dnbWBHJJo,3.8,"['meal_delivery', 'restaurant', 'food', 'point_of_interest', 'establishment']",24.0,,,"2650 Coney Island Avenue, Brooklyn",40.5920209,-73.96099319999999
285,Chinar Restaurant & Special Events,ChIJGSK-jWJDwokRR2BC4TSWn7M,4.4,"['restaurant', 'food', 'point_of_interest', 'establishment']",447.0,3.0,,"2775 Coney Island Avenue, Brooklyn",40.5888368,-73.9601368
286,Cafe Gallery,ChIJdbV3-11EwokRKmIcrTbwfr0,4.2,"['restaurant', 'food', 'point_of_interest', 'establishment']",186.0,2.0,,"2801 Coney Island Avenue, Brooklyn",40.588235,-73.960084
287,Coney Island Taste,ChIJ_6HdYPVEwokRJw0szyaYy_Q,3.4,"['meal_delivery', 'restaurant', 'food', 'point_of_interest', 'establishment']",93.0,2.0,,"2580 Coney Island Avenue, Brooklyn",40.5939416,-73.9611473
288,Nargis Cafe,ChIJdZ_Q6F1EwokR_N8wFMX7W3o,4.2,"['cafe', 'bar', 'restaurant', 'food', 'point_of_interest', 'establishment']",1744.0,2.0,,"2818 Coney Island Avenue, Brooklyn",40.587855,-73.9607051
289,Tsob Tsobe Mediterranean Restaurant,ChIJ2RMYH1hFwokRA0M-4GQmVtI,4.2,"['restaurant', 'food', 'point_of_interest', 'establishment']",558.0,,,"2817 Coney Island Ave floor #1, Brooklyn",40.5878467,-73.9601139
290,New Times,ChIJSW80Z_VEwokROMjuE7M3Y2g,4.2,"['meal_delivery', 'restaurant', 'food', 'point_of_interest', 'establishment']",65.0,,,"2578 Coney Island Avenue, Brooklyn",40.5939902,-73.961086
291,Sofia's Pizza,ChIJg3L_7l1EwokRnn3a45AKdO4,4.3,"['meal_delivery', 'restaurant', 'food', 'point_of_interest', 'establishment']",76.0,1.0,,"2822 Coney Island Avenue, Brooklyn",40.5877925,-73.9606879
292,Eat N' Run Cafe,ChIJpVkhZ_VEwokR7qnurDOnauw,4.3,"['meal_delivery', 'meal_takeaway', 'cafe', 'restaurant', 'food', 'point_of_interest', 'store', 'establishment']",170.0,,,"2574 Coney Island Avenue, Brooklyn",40.594069,-73.961125
293,Asian King,ChIJ8ZFhntdFwokRu8WZZpyJg7c,4.2,"['meal_delivery', 'restaurant', 'food', 'point_of_interest', 'establishment']",63.0,,,"2827 Coney Island Avenue, Brooklyn",40.5876907,-73.9599315
294,Chateau De Capitaine,ChIJrZDn21dEwokR0N9Hys1N1HI,4.3,"['restaurant', 'food', 'point_of_interest', 'establishment']",361.0,3.0,,"2570 Coney Island Avenue, Brooklyn",40.5941519,-73.96126170000001
295,Sushi MiKasa,ChIJOSy4uopEwokRKTJE20iIrn4,3.8,"['restaurant', 'food', 'point_of_interest', 'establishment']",53.0,,,"1188 Gravesend Neck Road, Brooklyn",40.5939545,-73.95867489999999
296,New Win Way,ChIJL9KG611EwokRCxmH9VTz6MU,3.9,"['restaurant', 'food', 'point_of_interest', 'establishment']",44.0,1.0,,"2830 Coney Island Avenue, Brooklyn",40.58753979999999,-73.96059559999999
297,Sakura,ChIJ-2xZ611EwokR_e6JxAzkjJM,4.2,"['meal_delivery', 'restaurant', 'food', 'point_of_interest', 'establishment']",131.0,2.0,,"2832 Coney Island Avenue, Brooklyn",40.5874983,-73.9606794
298,Retro Grill,ChIJrWrvaPVEwokRPJ2_MWDlU5I,4.2,"['meal_delivery', 'restaurant', 'food', 'point_of_interest', 'establishment']",337.0,2.0,,"2556 Coney Island Avenue, Brooklyn",40.59455790000001,-73.9611228
299,Bassett Caterers,ChIJAQSPxWFEwokRegMjFjMYEno,4.7,"['restaurant', 'food', 'point_of_interest', 'establishment']",385.0,,,"1404 Avenue X, Brooklyn",40.591931,-73.955793
300,New Hong Kong Garden,ChIJj_cVaLthwokR0bGc60YKbb8,4.0,"['meal_delivery', 'restaurant', 'food', 'point_of_interest', 'establishment']",42,,,"195-11 69th Avenue, Fresh Meadows",40.7372032,-73.77812159999999
301,Fresh Meadows Pizzeria & Restaurant,ChIJZX2-brthwokRNBQ1996WegU,4.5,"['meal_delivery', 'restaurant', 'food', 'point_of_interest', 'establishment']",300,1.0,,"195-09 69th Avenue, Fresh Meadows",40.73718799999999,-73.778194
302,Kin’d,ChIJyZA2o6ZhwokRwdrnwxjFykE,4.5,"['restaurant', 'food', 'point_of_interest', 'establishment']",446,2.0,,"192-03 Union Turnpike, Fresh Meadows",40.7302297,-73.77841389999999
303,Mikhael la Tortia grill house,ChIJ7cTMRmdhwokRXQIhkmp2TQI,5.0,"['restaurant', 'food', 'point_of_interest', 'establishment']",3,,,"190-11 Union Turnpike, Fresh Meadows",40.730073,-73.7789957
304,Turquoise,ChIJJQmP9KZhwokRJwpI18fBf78,4.5,"['restaurant', 'food', 'point_of_interest', 'establishment']",184,2.0,,"189-23 Union Turnpike, Fresh Meadows",40.7298266,-73.77969519999999
305,Peking,ChIJbXLzg7ZhwokRav_14TE-liQ,3.4,"['meal_delivery', 'restaurant', 'food', 'point_of_interest', 'establishment']",54,1.0,,"69-78 188th Street, Queens",40.73322530000001,-73.7835886
306,Dunkin',ChIJM4n_W6ZhwokRV9bvuqFMb2c,3.5,"['bakery', 'meal_takeaway', 'cafe', 'restaurant', 'food', 'point_of_interest', 'store', 'establishment']",165,1.0,,"18823 Union Turnpike, Queens",40.72963620000001,-73.78050970000001
307,Lucky Fresh Tortillas,ChIJp0izW6ZhwokRoDIk7jvfgw0,3.6,"['meal_delivery', 'restaurant', 'food', 'point_of_interest', 'establishment']",77,,,"188-21 Union Turnpike, New York",40.7295492,-73.7805514
308,Domino's Pizza,ChIJwQHXWqZhwokR3FHHJRAT8XM,2.1,"['meal_delivery', 'meal_takeaway', 'restaurant', 'food', 'point_of_interest', 'establishment']",443,1.0,,"18807 Union Turnpike, Queens",40.72953529999999,-73.7809262
309,Romeo's,ChIJZW00sWlhwokRcOJlFmnKVIs,5.0,"['restaurant', 'food', 'point_of_interest', 'establishment']",28,,,"188-08 Union Turnpike, Flushing",40.7291628,-73.7807327
310,Romeos Pizza,ChIJc--vNtZhwokR38ESwEugYK0,4.2,"['restaurant', 'food', 'point_of_interest', 'establishment']",6,,,"188-08 Union Turnpike, Queens",40.7291146,-73.7807163
311,Turnpike Cafe,ChIJGfklSqZhwokRtZd0MOZD0Qw,4.3,"['cafe', 'restaurant', 'food', 'point_of_interest', 'store', 'establishment']",165,2.0,,"187-20 Union Turnpike, Fresh Meadows",40.7289944,-73.7813688
312,Sizzle Falafel Bar,ChIJreggLaZhwokRq11Gsc1FQD4,4.5,"['restaurant', 'food', 'point_of_interest', 'establishment']",147,2.0,,"Fresh Meadows, 15 Union Turnpike #186, Flushing",40.729032,-73.782305
313,Peking House,ChIJYzwFeahhwokRTBZd3vJT0cM,4.4,"['restaurant', 'food', 'point_of_interest', 'establishment']",213,2.0,,"18523 Union Turnpike, Flushing",40.7287584,-73.783233
314,Dave's Chinese Kitchen,ChIJDbiTWaZhwokRpR21_eOP-mE,3.9,"['meal_delivery', 'restaurant', 'food', 'point_of_interest', 'establishment']",81,1.0,,"185-24 Union Turnpike, New York",40.7284543,-73.78276439999999
315,Pokeworks,ChIJzy1Z55JhwokRHRYqjBEXr1g,4.4,"['restaurant', 'food', 'point_of_interest', 'establishment']",68,2.0,,"61-24 190th Street, Queens",40.7404257,-73.7845917
316,Hooters,ChIJcdatubBhwokRNd0ySdodDgg,4.0,"['restaurant', 'food', 'point_of_interest', 'establishment']",1385,2.0,,"61-09 190th Street, Fresh Meadows",40.74078889999999,-73.7843505
317,Boston Market,ChIJDbqIHbFhwokRCTMRQNFlw34,4.0,"['restaurant', 'food', 'point_of_interest', 'establishment']",518,1.0,,"61-45 188th Street, Queens",40.7395755,-73.78565019999999
318,Meo Japanese Hibachi,ChIJYVi_eqhhwokReUi8x8WLsZ0,4.2,"['restaurant', 'food', 'point_of_interest', 'establishment']",508,3.0,,"185-01 Union Turnpike, Fresh Meadows",40.728557,-73.783749
319,Applebee's Grill + Bar,ChIJFdu6A7FhwokROXGrNrWAkTc,4.0,"['restaurant', 'bar', 'food', 'point_of_interest', 'establishment']",1393,2.0,,"61-48 188th Street, Queens",40.7391689,-73.7864412
320,Blue Bay Diner,ChIJ232JOL9hwokRSyXVYrL8sKA,4.1,"['bar', 'restaurant', 'food', 'point_of_interest', 'establishment']",1998.0,2.0,,"5850 Francis Lewis Boulevard, Flushing",40.74402509999999,-73.7762827
321,New Hong Kong Garden,ChIJj_cVaLthwokR0bGc60YKbb8,4.0,"['meal_delivery', 'restaurant', 'food', 'point_of_interest', 'establishment']",42.0,,,"195-11 69th Avenue, Fresh Meadows",40.7372032,-73.77812159999999
322,Fresh Meadows Pizzeria & Restaurant,ChIJZX2-brthwokRNBQ1996WegU,4.5,"['meal_delivery', 'restaurant', 'food', 'point_of_interest', 'establishment']",300.0,1.0,,"195-09 69th Avenue, Fresh Meadows",40.73718799999999,-73.778194
323,Hooters,ChIJcdatubBhwokRNd0ySdodDgg,4.0,"['restaurant', 'food', 'point_of_interest', 'establishment']",1385.0,2.0,,"61-09 190th Street, Fresh Meadows",40.74078889999999,-73.7843505
324,Pokeworks,ChIJzy1Z55JhwokRHRYqjBEXr1g,4.4,"['restaurant', 'food', 'point_of_interest', 'establishment']",68.0,2.0,,"61-24 190th Street, Queens",40.7404257,-73.7845917
325,Tia normita,ChIJaxZ4W8thwokRaayukQwcnh0,,"['restaurant', 'food', 'point_of_interest', 'establishment']",,,,"53-41 Hollis Court Boulevard, Flushing",40.74702500000001,-73.7809
326,Boston Market,ChIJDbqIHbFhwokRCTMRQNFlw34,4.0,"['restaurant', 'food', 'point_of_interest', 'establishment']",517.0,1.0,,"61-45 188th Street, Queens",40.7395755,-73.78565019999999
327,Chicken and Rice Guy,ChIJH182HLFhwokREk5xr_jJ0Jg,4.3,"['restaurant', 'food', 'point_of_interest', 'establishment']",4.0,,,"61-1-61-45 188th Street, Fresh Meadows",40.7402143,-73.7861554
328,QDOBA Mexican Eats,ChIJXwMLA7FhwokRdpWxkv_psqk,4.3,"['restaurant', 'food', 'point_of_interest', 'establishment']",1012.0,1.0,,"61-40 188th Street, Queens",40.739449,-73.7864578
329,Five Guys,ChIJpXN6G7FhwokRtBkaHssngkQ,4.2,"['meal_takeaway', 'restaurant', 'food', 'point_of_interest', 'establishment']",457.0,2.0,,"61-22 188th Street, Fresh Meadows",40.73992250000001,-73.786551
330,Applebee's Grill + Bar,ChIJFdu6A7FhwokROXGrNrWAkTc,4.0,"['restaurant', 'bar', 'food', 'point_of_interest', 'establishment']",1393.0,2.0,,"61-48 188th Street, Queens",40.7391689,-73.7864412
331,Häagen-Dazs® Ice Cream,ChIJTZF2GbFhwokR0aiIdbRroqE,4.3,"['restaurant', 'food', 'point_of_interest', 'store', 'establishment']",188.0,2.0,,"61-10 188th Street #274, Fresh Meadows",40.7401623,-73.7868743
332,Blaze Pizza,ChIJT2HW0T1hwokRNfG39svPeBo,4.1,"['restaurant', 'food', 'point_of_interest', 'establishment']",213.0,1.0,,"187-12 Horace Harding Expressway, New York",40.74028879999999,-73.78693969999999
333,Lie Bagels,ChIJeeKCdethwokRGAzrfnW0icY,4.3,"['bakery', 'meal_takeaway', 'restaurant', 'food', 'point_of_interest', 'store', 'establishment']",105.0,1.0,,"210-25 Horace Harding Expressway, Oakland Gardens",40.7466096,-73.7662005
334,Peking,ChIJbXLzg7ZhwokRav_14TE-liQ,3.4,"['meal_delivery', 'restaurant', 'food', 'point_of_interest', 'establishment']",54.0,1.0,,"69-78 188th Street, Queens",40.73322530000001,-73.7835886
335,I Chopsticks,ChIJhea8frFhwokRJPyU4Vz2IoQ,3.7,"['restaurant', 'food', 'point_of_interest', 'establishment']",187.0,2.0,,"185-20 Horace Harding Expressway, New York",40.739882,-73.788654
336,Ramen Jin,ChIJVSgZLQVhwokR-OZ5ayc6Fq4,,"['restaurant', 'food', 'point_of_interest', 'establishment']",,,,"18516 Horace Harding Expressway, Queens",40.7397991,-73.7886911
337,Brother's Pizza,ChIJUYgdgLFhwokR9BYspg1baVo,4.6,"['meal_delivery', 'restaurant', 'food', 'point_of_interest', 'establishment']",330.0,1.0,,"185-04 Horace Harding Expressway, Flushing",40.7397418,-73.7889393
338,Pho Choice,ChIJbRsPCZJhwokRs5nLm5GconU,4.2,"['restaurant', 'food', 'point_of_interest', 'establishment']",36.0,,,"184-22 Horace Harding Expressway, Queens",40.7397515,-73.7892799
339,Asia Cuisine,ChIJta58K7JhwokRuWTyKAoiIPM,,"['restaurant', 'food', 'point_of_interest', 'establishment']",,,,"184-20 Horace Harding Expressway, Fresh Meadows",40.7396578,-73.7893151
340,Subway,ChIJM24t7ABhwokRaN0LKu2Yhnk,4.1,"['meal_takeaway', 'restaurant', 'food', 'point_of_interest', 'establishment']",73.0,1.0,,"176-71 Union Turnpike, Queens",40.7261831,-73.7910689
341,Dumpling Legend,ChIJp1Dw8QBhwokRzzXxSqPcEw8,4.0,"['restaurant', 'food', 'point_of_interest', 'establishment']",275.0,1.0,,"176-61 Union Turnpike, Queens",40.7261295,-73.7912296
342,Green Lotus,ChIJR4Cs8ABhwokRHLtiQcSdpWg,4.1,"['meal_delivery', 'restaurant', 'food', 'point_of_interest', 'establishment']",89.0,2.0,,"176-59 Union Turnpike, Fresh Meadows",40.7260994,-73.7913452
343,籠苑食府,ChIJVWsgJGZhwokRpIYte3Jpxtc,,"['restaurant', 'food', 'point_of_interest', 'establishment']",,,,"176-57 Union Turnpike, Fresh Meadows",40.7260994,-73.79134619999999
344,Regina's Pizzeria,ChIJZ0A49wBhwokRJSbMg492fHA,4.1,"['cafe', 'restaurant', 'food', 'point_of_interest', 'establishment']",136.0,2.0,,"176-49 Union Turnpike, Flushing",40.726043,-73.79154799999999
345,Umi Sushi,ChIJS96p6gBhwokRjxnihdwruNM,4.5,"['restaurant', 'food', 'point_of_interest', 'establishment']",591.0,2.0,,"177-13 Union Turnpike, Flushing",40.7263683,-73.7905124
346,CJ's Cafe,ChIJA5SGwABhwokRp6tlWNGA_Nk,4.4,"['meal_delivery', 'restaurant', 'food', 'point_of_interest', 'establishment']",98.0,1.0,,"177-15 Union Turnpike, Fresh Meadows",40.7263463,-73.7904222
347,Nikko Hibachi,ChIJWRiHwABhwokROdMZQ_rdwwE,4.4,"['restaurant', 'food', 'point_of_interest', 'establishment']",1067.0,2.0,,"177-21 Union Turnpike, Fresh Meadows",40.7264111,-73.79025279999999
348,Acquista Trattoria,ChIJyaafuQBhwokRF0U0BWISYfU,4.4,"['restaurant', 'food', 'point_of_interest', 'establishment']",312.0,2.0,,"178-01 Union Turnpike, Queens",40.72653529999999,-73.7898817
349,Cafe Muscat,ChIJBev2uQBhwokRGmgmdSKJAF8,4.2,"['cafe', 'restaurant', 'food', 'point_of_interest', 'establishment']",467.0,2.0,,"178-07 Union Turnpike, Fresh Meadows",40.726569,-73.789796
350,Queens Kosher Catering,ChIJoRipgOBhwokREe6CdcxeqlY,5.0,"['restaurant', 'food', 'point_of_interest', 'establishment']",2.0,,,"178-09 Union Turnpike, Fresh Meadows",40.72661189999999,-73.7897933
351,Empire,ChIJF8nhuQBhwokRSxywUNz8cqc,4.2,"['meal_delivery', 'restaurant', 'food', 'point_of_interest', 'establishment']",36.0,1.0,,"17817 Union Turnpike, Flushing",40.7266852,-73.789349
352,Sup Thai Kitchen,ChIJJ12GVE1hwokRaUiTHDtXZ5E,4.5,"['restaurant', 'food', 'point_of_interest', 'establishment']",184.0,2.0,,"178-19 Union Turnpike, Fresh Meadows",40.7267053,-73.7892869
353,Ganda Sushi Express,ChIJrWNxygBhwokRWJ-_l-Dnf0s,4.4,"['restaurant', 'food', 'point_of_interest', 'establishment']",89.0,1.0,,"8008 Surrey Place, Queens",40.72615399999999,-73.789221
354,The Hot Spot BBQ & Grill,ChIJmeoiTAdhwokRULJLobQjzNg,4.6,"['meal_delivery', 'restaurant', 'food', 'point_of_interest', 'establishment']",193.0,1.0,,"179-08 Union Turnpike, Fresh Meadows",40.72644500000001,-73.788647
355,Fitoor Cafe & Grill Lounge,ChIJC1A_TgdhwokRx-qc0vORGJ8,4.4,"['restaurant', 'food', 'point_of_interest', 'establishment']",323.0,2.0,,"179-22 Union Turnpike, Fresh Meadows",40.7265806,-73.7882865
356,Fortune Glatt Kosher Chinese Take Out,ChIJo0fUYQdhwokRfZQyc0casKA,4.3,"['meal_delivery', 'restaurant', 'food', 'point_of_interest', 'establishment']",169.0,,,"180-26 Union Turnpike, Queens",40.7270283,-73.7872404
357,Lewis & Clark,ChIJU81bRHphwokRX6Wyic67nPo,,"['restaurant', 'food', 'point_of_interest', 'establishment']",,,,Flushing,40.7282239,-73.7948516
358,Bulska's Restaurant,ChIJY8sqD55hwokRYLRRx_a_4L8,,"['restaurant', 'food', 'point_of_interest', 'establishment']",,,,"Juszczak Street, Flushing",40.7282239,-73.7948516
359,Fortune Sushi,ChIJqVF_bpVhwokRXJsMiS8rtME,3.7,"['restaurant', 'food', 'point_of_interest', 'establishment']",3.0,,,"181-24 Union Turnpike, Queens",40.7272419,-73.7864757
360,Kennedy Fried Chicken & Pizza,ChIJoYGb7DxhwokR_xWw3_-5tso,4.2,"['restaurant', 'food', 'point_of_interest', 'establishment']",22.0,,,"17373 106th Avenue, Jamaica",40.7028896,-73.78124729999999
361,Jamao Coffee Shop,ChIJPXQ1FT1hwokRHJlZunX_Euo,3.7,"['cafe', 'restaurant', 'food', 'point_of_interest', 'store', 'establishment']",22.0,,,"177-16 Liberty Avenue, Jamaica",40.7053483,-73.78185470000001
362,Dawgs,ChIJ4TQbYiNhwokRIc0Yp0DGUcg,,"['restaurant', 'food', 'point_of_interest', 'establishment']",,,,"17140 105th Avenue, Jamaica",40.7021388,-73.784954
363,Kim Po,ChIJZS3AeEVhwokRZzeAE0NStx4,3.8,"['meal_delivery', 'restaurant', 'food', 'point_of_interest', 'establishment']",79.0,1.0,,"11006 Farmers Boulevard, St. Albans",40.7029399,-73.76698809999999
364,Girasoles Mexican Cuisine,ChIJTY1pPhRhwokR_TYFAlbM4iQ,4.5,"['meal_delivery', 'grocery_or_supermarket', 'meal_takeaway', 'home_goods_store', 'restaurant', 'food', 'point_of_interest', 'store', 'establishment']",86.0,1.0,,"184-01 Jamaica Avenue, Hollis",40.7093163,-73.7760428
365,El Patio,ChIJ1zRJ_NpgwokRb8OmqTqwnwg,4.0,"['bar', 'restaurant', 'food', 'point_of_interest', 'establishment']",75.0,2.0,,"180-05 Jamaica Avenue, Jamaica",40.708703,-73.780373
366,Malibu Iguana,ChIJlVhI7RdhwokRvCZmCR-ZOWU,4.0,"['restaurant', 'food', 'point_of_interest', 'establishment']",4.0,,,"17826 Jamaica Avenue, Jamaica",40.7079432,-73.7823119
367,FAST BITE,ChIJtx2MV7thwokRTSxUJuB-giQ,5.0,"['restaurant', 'food', 'point_of_interest', 'establishment']",2.0,,,"109-11 Farmers Boulevard, Jamaica",40.70371069999999,-73.7665516
368,Queens Fried Chicken,ChIJrUUzjORhwokR22iBCssUiyM,4.1,"['restaurant', 'food', 'point_of_interest', 'establishment']",24.0,,,"109-11 Farmers Boulevard, Jamaica",40.70371069999999,-73.7665516
369,Pizza Palace,ChIJZ0ex6EFhwokRVAhXYTph9mw,5.0,"['restaurant', 'food', 'point_of_interest', 'establishment']",2.0,,,"10911 Farmers Boulevard, St. Albans",40.70371069999999,-73.7665516
370,Special Pizza 3,ChIJZ0ex6EFhwokR_ZJvVzSFy5I,4.0,"['restaurant', 'food', 'point_of_interest', 'establishment']",2.0,,,"10911 Farmers Boulevard, Jamaica",40.70371069999999,-73.7665516
371,Karis Deli & Grocery,ChIJuR6nr_JhwokRYbowtqUDEzk,5.0,"['restaurant', 'food', 'point_of_interest', 'establishment']",1.0,,,"184-35 Jamaica Avenue, Jamaica",40.7096307,-73.7748476
372,Privilege,ChIJ23jK_7RhwokRaWf6yIxbWVY,4.8,"['restaurant', 'food', 'point_of_interest', 'establishment']",17.0,,,"184-35 Jamaica Avenue, Jamaica",40.7096307,-73.7748476
373,Macumba,ChIJ24zTZxRhwokReaaKMGiwUN4,3.4,"['bar', 'restaurant', 'food', 'point_of_interest', 'establishment']",28.0,2.0,,"184-33 Jamaica Avenue, Queens",40.7096337,-73.7748562
374,Seamorhen,ChIJleE37kFhwokR_KpoitNHDMw,4.4,"['restaurant', 'food', 'point_of_interest', 'establishment']",309.0,1.0,,"190-7 109th Road, Jamaica",40.7035454,-73.7662637
375,Y & H Deli & Grocery Corporation,ChIJt3CNgkFhwokRvmAPboBkRxM,4.1,"['restaurant', 'food', 'point_of_interest', 'store', 'establishment']",36.0,,,"11052 Farmers Boulevard, St. Albans",40.7020354,-73.7659906
376,TAQUERIA LAS CHELAS,ChIJ3UEoMmphwokRLvJWZSameoA,2.2,"['restaurant', 'food', 'point_of_interest', 'establishment']",5.0,,,"170 09 Jamaica Avenue, Jamaica",40.70824,-73.783013
377,Papa John's Pizza,ChIJxWs0syZhwokRTStIpOE-x3I,3.3,"['restaurant', 'food', 'point_of_interest', 'establishment']",128.0,1.0,,"109-28 Merrick Boulevard, Queens",40.6965668,-73.7838934
378,Little Caesars Pizza,ChIJ5X8j8S9hwokR3XS4x8FmmOk,4.3,"['meal_takeaway', 'restaurant', 'food', 'point_of_interest', 'establishment']",11.0,1.0,,"109-28 Merrick Boulevard, Jamaica",40.69666,-73.78403999999999
379,Papa Johns,ChIJadUc8S9hwokRpsXeG1BUhPI,,"['restaurant', 'food', 'point_of_interest', 'establishment']",,1.0,,"165-25 Liberty Avenue, Jamaica",40.6965992,-73.78401710000001
380,The Blue Dolphin Fish Market,ChIJ37qPDPxhwokRSnuRIMsnWmg,4.3,"['restaurant', 'food', 'point_of_interest', 'establishment']",26.0,,,"172-02 Linden Boulevard, Queens",40.6918265,-73.7780609
381,L & K,ChIJcyZGUDFhwokRdWATScyzZVE,3.9,"['restaurant', 'food', 'point_of_interest', 'establishment']",41.0,1.0,,"172-06 Linden Boulevard, Jamaica",40.6918573,-73.7778926
382,Kam Hung,ChIJ8-HLUTFhwokRC8k2-n0bcP4,4.2,"['restaurant', 'food', 'point_of_interest', 'establishment']",89.0,1.0,,"172-08 Linden Boulevard, Jamaica",40.6918466,-73.7777894
383,Cheung Hing Kitchen,ChIJQU8h3zNhwokRtWGzuRNbSKo,3.4,"['meal_delivery', 'restaurant', 'food', 'point_of_interest', 'establishment']",98.0,1.0,,"114-60 Merrick Boulevard, Jamaica",40.6900672,-73.7782513
384,Jazzy Wings & Southern Cuisine,ChIJTxU_MTBhwokRnU2HmI1tpNI,4.2,"['restaurant', 'food', 'point_of_interest', 'establishment']",87.0,,,"110-46 Merrick Boulevard, Jamaica",40.69481299999999,-73.7819767
385,Domino's Pizza,ChIJ4Ur7hSZhwokRMQMUk1GAYwQ,2.7,"['meal_delivery', 'meal_takeaway', 'restaurant', 'food', 'point_of_interest', 'establishment']",549.0,1.0,,"10950 Merrick Boulevard, Queens",40.6960176,-73.783345
389,DANYLLE,ChIJVcz1Q4hhwokRSAGmvVdAFxo,,"['restaurant', 'food', 'point_of_interest', 'establishment']",,,,"Guy R Brewer Boulevard, Jamaica",40.69142609999999,-73.7874895
390,Wild Onion NYC,ChIJeZ3XbC5nwokRKRPS00lVQXc,4.8,"['restaurant', 'food', 'point_of_interest', 'establishment']",56.0,,,"11908 Merrick Boulevard, Jamaica",40.6855456,-73.77320449999999
391,Royal Fried Chicken,ChIJ5WrGgM1mwokRVQIatEx6o4s,4.1,"['restaurant', 'food', 'point_of_interest', 'establishment']",76.0,,,"11701 Guy R Brewer Boulevard, Jamaica",40.68416670000001,-73.78277779999999
392,Boulevard Pizza,ChIJtaGMJSlhwokRwrChop7ZPn8,4.3,"['restaurant', 'food', 'point_of_interest', 'establishment']",72.0,1.0,,"10901 Guy R Brewer Boulevard, Jamaica",40.6949473,-73.78976639999999
393,Blaze 718,ChIJOepi_IZhwokRucGyGSYRleY,3.7,"['restaurant', 'food', 'point_of_interest', 'establishment']",32.0,,,"109-10 Guy R Brewer Boulevard, Jamaica",40.69465880000001,-73.7900605
394,Apple Garden,ChIJJygaJylhwokRNHak_ojCHJk,3.5,"['meal_delivery', 'meal_takeaway', 'restaurant', 'food', 'point_of_interest', 'establishment']",67.0,1.0,,"108-55 Guy R Brewer Boulevard, Jamaica",40.69522630000001,-73.79011109999999
395,J & M Kelly's,ChIJgR5u7c1mwokRWIMRMMWI8sY,4.2,"['restaurant', 'food', 'point_of_interest', 'establishment']",111.0,,,"118-23 Guy R Brewer Boulevard, Jamaica",40.68311560000001,-73.7819986
396,Rochdale Chicken And Fish,ChIJ__-E681mwokRt1zmbzNtEu4,4.1,"['restaurant', 'food', 'point_of_interest', 'establishment']",249.0,,,"11829 Guy R Brewer Boulevard, Queens",40.6829514,-73.78194859999999
397,Seamorhen,ChIJCX-_pg1nwokRSiOHyogYAR0,4.4,"['restaurant', 'food', 'point_of_interest', 'establishment']",134.0,1.0,,"118-33 Guy R Brewer Boulevard, Jamaica",40.6828302,-73.7819991
398,Poboys,ChIJfV1cttRmwokRULwrXhDa6XA,,"['restaurant', 'food', 'point_of_interest', 'establishment']",,,,"15706 Linden Boulevard, Jamaica",40.6876582,-73.78991110000001
399,Rib Shack,ChIJFcDbtdRmwokR-5aKnn1LHAo,4.1,"['restaurant', 'food', 'point_of_interest', 'establishment']",896.0,1.0,,"157-6 Linden Boulevard, Jamaica",40.6877351,-73.7899647
406,Bobby’s Jamaican Restaurant,ChIJzS3X9o9hwokRnMjjiKUOhl0,5.0,"['restaurant', 'food', 'point_of_interest', 'establishment']",3.0,,,"111-06 Farmers Boulevard, Queens",40.70165829999999,-73.7656603
407,Tropical Fanatsy Cafe,ChIJz7iff0FhwokRjOf8aHPQzds,,"['restaurant', 'food', 'point_of_interest', 'establishment']",,,,"11106 Farmers Boulevard, St. Albans",40.70165829999999,-73.7656603
408,B&R Spice,ChIJz7iff0FhwokRleQMhSoJ6kE,4.1,"['restaurant', 'food', 'point_of_interest', 'establishment']",95.0,2.0,,"11106 Farmers Boulevard, New York",40.7016903,-73.7656186
410,Farmers Pizza,ChIJd2vAkEFhwokR53f5q2Eksrs,4.0,"['meal_delivery', 'meal_takeaway', 'restaurant', 'food', 'point_of_interest', 'establishment']",321.0,,,"111-36 Farmers Boulevard, St. Albans",40.70111259999999,-73.7649735
411,Kriss,ChIJG5RpwkNhwokR75FPURAyoOM,4.2,"['restaurant', 'food', 'point_of_interest', 'establishment']",202.0,2.0,,"112-04 Farmers Boulevard, Queens",40.7005354,-73.76442229999999
412,Oriental Star Kitchen,ChIJP-kovENhwokRkxNixY9OgFs,3.5,"['restaurant', 'food', 'point_of_interest', 'establishment']",78.0,1.0,,"11217 Farmers Boulevard, New York",40.7004564,-73.7636704
413,Boulevard Fish & Chips,ChIJ71ckh0RhwokRmllN4AeJ0Ac,4.1,"['restaurant', 'food', 'point_of_interest', 'establishment']",272.0,1.0,,"113-33 Farmers Boulevard, Jamaica",40.6985006,-73.7623433
414,Maxine On the Boulevard,ChIJ71ckh0RhwokRCddAeY_z_WM,3.8,"['restaurant', 'food', 'point_of_interest', 'establishment']",23.0,,,"11333 Farmers Boulevard, New York",40.6985153,-73.7622537
416,Sea Level Sea and Soul,ChIJfcLg9kRhwokRWA6_GbdCbms,4.1,"['restaurant', 'food', 'point_of_interest', 'establishment']",50.0,,,"114-32 Farmers Boulevard, St. Albans",40.6972085,-73.7621216
422,Gaby's Pizza,ChIJ1U4Yc3dhwokRARHDgoiFe8g,4.5,"['restaurant', 'food', 'point_of_interest', 'establishment']",1896.0,1.0,,"204-23 Hillside Avenue, Queens",40.721189,-73.76070229999999
428,China House,ChIJvT1QJXhhwokRM--hY3piYBU,4.2,"['meal_delivery', 'restaurant', 'food', 'point_of_interest', 'establishment']",72.0,1.0,,"206 Hillside Avenue #18, Queens",40.72133520000001,-73.7588112
429,Yuchan Lin,ChIJHXSmJXhhwokR3AozjQZuqwY,5.0,"['restaurant', 'food', 'point_of_interest', 'establishment']",1.0,,,"20618 Hillside Avenue, Queens Village",40.72125739999999,-73.7587652
433,Village Deli Grocery Inc,ChIJczpsKoJhwokR83NIpE--N4w,3.7,"['atm', 'meal_takeaway', 'finance', 'restaurant', 'food', 'point_of_interest', 'store', 'establishment']",3.0,1.0,,"21202 Hillside Avenue, Queens Village",40.7246435,-73.75385349999999
434,Elegant,ChIJ-eZkgIFhwokRpVrLlrb8xA8,4.3,"['meal_delivery', 'restaurant', 'food', 'point_of_interest', 'establishment']",58.0,1.0,,"21206 Hillside Avenue, Jamaica",40.7246793,-73.7536776
440,Benny's Kosher Pizza,ChIJs4zkvPpgwokRqOev8L8evN8,4.4,"['meal_delivery', 'restaurant', 'food', 'point_of_interest', 'establishment']",280,1.0,,"18130 Union Turnpike, Flushing",40.727255699999986,-73.7863204
441,Fortune Sushi,ChIJqVF_bpVhwokRXJsMiS8rtME,3.7,"['restaurant', 'food', 'point_of_interest', 'establishment']",3,,,"181-24 Union Turnpike, Queens",40.7272419,-73.7864757
445,Fortune Glatt Kosher Chinese Take Out,ChIJo0fUYQdhwokRfZQyc0casKA,4.3,"['meal_delivery', 'restaurant', 'food', 'point_of_interest', 'establishment']",169,,,"180-26 Union Turnpike, Queens",40.7270283,-73.7872404
448,Fitoor Cafe & Grill Lounge,ChIJC1A_TgdhwokRx-qc0vORGJ8,4.4,"['restaurant', 'food', 'point_of_interest', 'establishment']",323,2.0,,"179-22 Union Turnpike, Fresh Meadows",40.7265806,-73.7882865
449,The Hot Spot BBQ & Grill,ChIJmeoiTAdhwokRULJLobQjzNg,4.6,"['meal_delivery', 'restaurant', 'food', 'point_of_interest', 'establishment']",193,1.0,,"179-08 Union Turnpike, Fresh Meadows",40.72644500000001,-73.788647
453,Ganda Sushi Express,ChIJrWNxygBhwokRWJ-_l-Dnf0s,4.4,"['restaurant', 'food', 'point_of_interest', 'establishment']",89,1.0,,"8008 Surrey Place, Queens",40.72615399999999,-73.789221
456,Sup Thai Kitchen,ChIJJ12GVE1hwokRaUiTHDtXZ5E,4.5,"['restaurant', 'food', 'point_of_interest', 'establishment']",184,2.0,,"178-19 Union Turnpike, Fresh Meadows",40.7267053,-73.7892869
457,Empire,ChIJF8nhuQBhwokRSxywUNz8cqc,4.2,"['meal_delivery', 'restaurant', 'food', 'point_of_interest', 'establishment']",36,1.0,,"17817 Union Turnpike, Flushing",40.7266852,-73.789349
458,Cafe Muscat,ChIJBev2uQBhwokRGmgmdSKJAF8,4.2,"['cafe', 'restaurant', 'food', 'point_of_interest', 'establishment']",467,2.0,,"178-07 Union Turnpike, Fresh Meadows",40.726569,-73.789796
459,Queens Kosher Catering,ChIJoRipgOBhwokREe6CdcxeqlY,5.0,"['restaurant', 'food', 'point_of_interest', 'establishment']",2,,,"178-09 Union Turnpike, Fresh Meadows",40.72661189999999,-73.7897933
460,Dunkin',ChIJ6-IPa4VdwokR28e2TugtMao,4.0,"['bakery', 'meal_takeaway', 'cafe', 'restaurant', 'food', 'point_of_interest', 'store', 'establishment']",140.0,1.0,,"19605 Grand Central Parkway, Queens",40.7250925,-73.77154949999999
473,No 1 Halal Kitchen,ChIJz2GHZBJhwokRWvaLabBPovw,3.8,"['restaurant', 'food', 'point_of_interest', 'establishment']",115.0,1.0,,"18714 New York 25, Hollis",40.71466940000001,-73.77465889999999
480,Krafers,ChIJy6EguzdFwokR82K5XQgIvaU,,"['restaurant', 'food', 'point_of_interest', 'establishment']",,,,"2233 Ocean Avenue, Brooklyn",40.6072482,-73.952614
481,Idiliya,ChIJs7lF97JFwokRle11jcJ3mEc,,"['meal_takeaway', 'restaurant', 'food', 'point_of_interest', 'establishment']",,,,"2027 Avenue U, Brooklyn",40.5997289,-73.9505904
482,Spiro's,ChIJnfHqqY9EwokRLxKSOn_svbU,4.3,"['meal_delivery', 'restaurant', 'food', 'point_of_interest', 'establishment']",168.0,1.0,,"2103 Avenue U, Brooklyn",40.5996555,-73.9502181
483,Tasty Spot,ChIJfyi2mDdFwokRfJ_uSypkmSI,4.5,"['restaurant', 'food', 'point_of_interest', 'establishment']",69.0,,,"1911 Avenue U, Brooklyn",40.599547,-73.952212
484,Sherdor Restaurant,ChIJdQpc845EwokRB-Z-deVJoCI,4.1,"['restaurant', 'food', 'point_of_interest', 'establishment']",499.0,,,"1917 Avenue U, Brooklyn",40.59951,-73.952078
485,No. 1,ChIJ0a1NiI9EwokR7r1HVgHrYwM,3.5,"['restaurant', 'food', 'point_of_interest', 'establishment']",54.0,1.0,,"2319 Avenue U, Brooklyn",40.60000599999999,-73.9478659
486,Gulchatay Restaurant,ChIJ5aiM0PBFwokRbsapPPwN00w,4.2,"['restaurant', 'food', 'point_of_interest', 'establishment']",47.0,,,"1915 Avenue U, Brooklyn",40.5994427,-73.9521239
487,Omiya Sushi,ChIJtwH5iI9EwokRYvO-0nNKIWg,4.4,"['meal_delivery', 'restaurant', 'food', 'point_of_interest', 'establishment']",269.0,1.0,,"2317 Avenue U, Brooklyn",40.59992099999999,-73.94791599999999
488,Simply Sweet | Raw & Vegan Desserts,ChIJ1-hm5G1FwokRgOb8uuBL4H8,5.0,"['grocery_or_supermarket', 'cafe', 'restaurant', 'food', 'health', 'point_of_interest', 'store', 'establishment']",21.0,,,"2106a Avenue U, Brooklyn",40.5994029,-73.9501235
489,Trio Pizzeria & Restaurant,ChIJ77wDjY5EwokRo0vD_WxcKCc,4.3,"['meal_delivery', 'restaurant', 'food', 'point_of_interest', 'establishment']",106.0,1.0,,"1907 Avenue U, Brooklyn",40.5994367,-73.9523535
490,Pirosmani,ChIJmUWYnY9EwokRm4xZ6e_HKuA,4.1,"['restaurant', 'food', 'point_of_interest', 'establishment']",216.0,2.0,,"2222 Avenue U, Brooklyn",40.5994799,-73.94871789999999
491,Subway,ChIJ83n1j45EwokRfbDBrJfAAqQ,4.3,"['meal_takeaway', 'restaurant', 'food', 'point_of_interest', 'establishment']",42.0,1.0,,"1819 Avenue U, Brooklyn",40.59937229999999,-73.9528685
492,Padishah,ChIJ76OE7Y5EwokR-o4RJcDS_jQ,4.1,"['meal_delivery', 'meal_takeaway', 'restaurant', 'food', 'point_of_interest', 'establishment']",208.0,2.0,,"1920 Avenue U, Brooklyn",40.5991687,-73.9519385
493,Phở Hoài,ChIJSej2ko5EwokRGNK0cNwP9yc,4.2,"['restaurant', 'food', 'point_of_interest', 'establishment']",600.0,1.0,,"1906 Avenue U, Brooklyn",40.59916049999999,-73.9523181
494,Golden Sands Cafe Inc.,ChIJ7fX08Y5EwokRDMQvB4f0vkQ,4.2,"['restaurant', 'food', 'point_of_interest', 'establishment']",6.0,,,"1924 Avenue U, Brooklyn",40.5990999,-73.9517668
495,Dunkin',ChIJgaGSJURFwokRcaAQdWO2MvQ,3.0,"['bakery', 'meal_takeaway', 'cafe', 'restaurant', 'food', 'point_of_interest', 'store', 'establishment']",15.0,1.0,,"2501 Avenue U, Brooklyn",40.6000825,-73.9464962
496,Double Fire Gourmet Inc,ChIJT1zh6aJFwokRsP2RsZExglU,3.7,"['restaurant', 'food', 'point_of_interest', 'establishment']",3.0,,,"1818 Avenue U, Brooklyn",40.5991002,-73.9528993
497,Sushi Bistro,ChIJlyfBlo5EwokRUvxnUsU7z-A,4.5,"['meal_delivery', 'restaurant', 'food', 'point_of_interest', 'establishment']",198.0,1.0,,"2106 East 19th Street, Brooklyn",40.5989791,-73.9526989
498,Sango Sushi,ChIJHT_YgpREwokR6Oyf_bzokXE,4.7,"['bar', 'restaurant', 'food', 'point_of_interest', 'establishment']",3.0,2.0,,"1708 East 16th Street, Brooklyn",40.6081023,-73.9573802
499,Jin,ChIJAT4WnZREwokRoFkHQto9PPw,4.4,"['meal_delivery', 'restaurant', 'food', 'point_of_interest', 'establishment']",137.0,1.0,,"1708 East 16th Street, Brooklyn",40.6080929,-73.95739189999999
500,Dunkin',ChIJv2w8mHtFwokR21bMohK2yVw,4.3,"['bakery', 'meal_takeaway', 'cafe', 'restaurant', 'food', 'point_of_interest', 'store', 'establishment']",36.0,1.0,,"1621 Avenue U, Brooklyn",40.59925,-73.95477
501,Luigi's Pizza,ChIJ3cGyP4xEwokROZgyYo7MvsQ,4.1,"['meal_delivery', 'restaurant', 'food', 'point_of_interest', 'establishment']",207.0,1.0,,"1615 Avenue U, Brooklyn",40.59919,-73.95499699999999
502,Three Star,ChIJZeJ8P4xEwokRPIhwdqnZp64,4.3,"['restaurant', 'food', 'point_of_interest', 'establishment']",339.0,2.0,,"1611 Avenue U, Brooklyn",40.5991667,-73.955
503,Taco Keto,ChIJE93ZsklFwokROYECGaBGmew,4.5,"['restaurant', 'food', 'point_of_interest', 'establishment']",2.0,,,"1702 Avenue U, Brooklyn",40.59886110000001,-73.9541931
504,Kung Fu Tea,ChIJWwmdYoxEwokRYljZV2dGAqI,4.5,"['cafe', 'restaurant', 'food', 'point_of_interest', 'establishment']",236.0,1.0,,"1422 Avenue U, Brooklyn",40.5985988,-73.9565322
505,El Mexicano Mexican Restaurant NY,ChIJEfh7Z-NFwokRgyMvFVHYom0,4.2,"['restaurant', 'food', 'point_of_interest', 'establishment']",95.0,,,"2102 East 15th Street, Brooklyn",40.5985874,-73.9565786
507,Golden Z,ChIJ18QqhIxEwokR104AkcKZCZM,4.2,"['restaurant', 'food', 'point_of_interest', 'establishment']",158.0,1.0,,"1410 Avenue U, Brooklyn",40.5986521,-73.9569497
508,Season,ChIJz8wjkYxEwokRo6jw-N5LDfU,4.0,"['restaurant', 'food', 'point_of_interest', 'establishment']",88.0,2.0,,"1321 Avenue U, Brooklyn",40.598944,-73.957577
509,J&M Pizza II,ChIJwW4PkYxEwokRirfvE-bcZdw,4.1,"['meal_delivery', 'meal_takeaway', 'restaurant', 'food', 'point_of_interest', 'establishment']",100.0,1.0,,"1323 Avenue U, Brooklyn",40.598839,-73.9574837
510,IQ Contracting Inc,ChIJq6rue4xEwokRqPG0KX7pvWg,,"['restaurant', 'food', 'point_of_interest', 'establishment']",,,,"2119 East 15th Street, Brooklyn",40.59830789999999,-73.95611889999999
518,La Villita,ChIJz9R8pIxEwokRUP6uM_HtpQc,3.4,"['restaurant', 'food', 'point_of_interest', 'establishment']",83.0,2.0,,"1249 Avenue U, Brooklyn",40.59879660000001,-73.9584625
520,Win Hing,ChIJryFcwxRFwokRDZfVjRZtJZA,3.0,"['restaurant', 'food', 'point_of_interest', 'establishment']",2,,,"2934 Avenue R, Brooklyn",40.6073228,-73.942804
521,Chun Lin,ChIJoTmOOJlEwokRae_Sy73WFKs,3.8,"['restaurant', 'food', 'point_of_interest', 'establishment']",12,,,"2932A Avenue R, Brooklyn",40.60724400000001,-73.94282
522,Michael’s of Brooklyn,ChIJ2cccPJlEwokRnkUFMJ3M_-k,4.6,"['restaurant', 'food', 'point_of_interest', 'establishment']",742,3.0,,"2929 Avenue R, Brooklyn",40.6076253,-73.9428964
523,Pronto Pizza,ChIJRUkwP5lEwokR7xqIV-avVjo,4.1,"['meal_delivery', 'restaurant', 'food', 'point_of_interest', 'establishment']",295,1.0,,"2928 Avenue R, Brooklyn",40.607228,-73.943011
524,Big Chef,ChIJd5KhBqFEwokRclv26G0T8d4,4.0,"['meal_delivery', 'restaurant', 'food', 'point_of_interest', 'establishment']",53,1.0,,"2948 Avenue S, Brooklyn",40.6049549,-73.9420074
525,Buckley's,ChIJXdjy7JtEwokRwbQj1okUKEY,4.5,"['restaurant', 'food', 'point_of_interest', 'establishment']",185,2.0,,"2926 Avenue S, Brooklyn",40.6048595,-73.9430084
526,My Favorite Bagel,ChIJ43pllJhEwokRLeqpJKAAnQk,4.6,"['bakery', 'restaurant', 'food', 'point_of_interest', 'store', 'establishment']",270,1.0,,"3053 Nostrand Avenue, Brooklyn",40.6099699,-73.9434091
527,Oshi's Cafe,ChIJq6rzkphEwokRHVA1F4zwc8E,4.9,"['restaurant', 'food', 'point_of_interest', 'establishment']",55,,,"2913 Quentin Road, Brooklyn",40.6099566,-73.9439613
528,Savor Gourmet Market & Cafe,ChIJgYgaZ6JEwokRtq2lOg_soe8,4.5,"['cafe', 'restaurant', 'food', 'point_of_interest', 'establishment']",220,2.0,,"2925 Avenue P, Brooklyn",40.6122099,-73.944317
529,Quentin Pizza,ChIJNatZBqFEwokRQ1IHmhp9uc0,4.5,"['meal_delivery', 'restaurant', 'food', 'point_of_interest', 'establishment']",103,1.0,,"3211 Quentin Road, Brooklyn",40.6130876,-73.9394542
530,Isabella,ChIJ-e6lir5FwokRm0mpcRSx31E,4.4,"['restaurant', 'food', 'point_of_interest', 'establishment']",61,,,"3219 Quentin Road, Brooklyn",40.613249,-73.939369
531,T Fusion Steakhouse,ChIJh0V-A6FEwokR5oKP-CSEUDU,4.6,"['restaurant', 'food', 'point_of_interest', 'establishment']",559,3.0,,"3223 Quentin Road, Brooklyn",40.613300699999996,-73.9392036
532,T For Two Grill,ChIJh0V-A6FEwokR5v3RWnTdNeU,5.0,"['bar', 'restaurant', 'food', 'point_of_interest', 'establishment']",3,,,"3223 Quentin Road, Brooklyn",40.6133126,-73.939251
533,Pizza D'Amore,ChIJfzIjKJ1EwokRjJUEk-JAnfI,4.1,"['meal_delivery', 'restaurant', 'food', 'point_of_interest', 'establishment']",257,2.0,,"3003 Avenue U, Brooklyn",40.60098259999999,-73.93888079999999
534,Surf & Turf,ChIJ9WO4S4NEwokRsJ5CagfIPN4,4.2,"['restaurant', 'food', 'point_of_interest', 'establishment']",86,2.0,,"2954 Avenue U, Brooklyn",40.600408,-73.94059399999999
535,Di Di,ChIJHb3JNINEwokRLTpfD6xW-Rw,3.9,"['meal_delivery', 'restaurant', 'food', 'point_of_interest', 'establishment']",55,1.0,,"2972 Avenue U, Brooklyn",40.6004265,-73.940085
536,Pizza Emporium,ChIJpYyvnGBDwokRLEqXXyaWvLs,4.2,"['meal_delivery', 'restaurant', 'food', 'point_of_interest', 'establishment']",116,1.0,,"3424 Avenue S, Brooklyn",40.60906809999999,-73.9320427
537,N & D Pizza East 29,ChIJcbdXt4REwokRbIfE4NClzpg,4.4,"['meal_delivery', 'restaurant', 'food', 'point_of_interest', 'establishment']",255,1.0,,"2823 Avenue U, Brooklyn",40.6004632,-73.94307239999999
538,Mui Hung D/ Mui Pui H,ChIJKWJ_MoNEwokRs8iN_L_RrJU,5.0,"['restaurant', 'food', 'point_of_interest', 'establishment']",1,,,"Brown Street, Brooklyn",40.6003845,-73.93965659999999
539,FalafaLafa Marine Park,ChIJJQV4hjhDwokRDizO9uo2UNU,4.6,"['restaurant', 'food', 'point_of_interest', 'establishment']",192,1.0,,"3113 Avenue U, Brooklyn",40.6021141,-73.9348591
540,Cafe Samarkand,ChIJRw9kRSxbwokRJhdZs9jkpdc,4.3,"['restaurant', 'food', 'point_of_interest', 'establishment']",44,,,"413 Cortelyou Road, Brooklyn",40.63846729999999,-73.97494669999999
541,One Two Free Sushi,ChIJMzJ9Pn9bwokRDFWzFWTzk7A,4.2,"['restaurant', 'food', 'point_of_interest', 'establishment']",38,,,"318 Cortelyou Road, Brooklyn",40.6380974,-73.9757812
542,465 ocean parkwy,ChIJm6E2yzpbwokRB64ravd9CwI,5.0,"['restaurant', 'food', 'point_of_interest', 'establishment']",1,,,"465 Ocean Parkway Service Road, Brooklyn",40.6370755,-73.9724037
543,Mexico Diner,ChIJvZkkPTJbwokRJb-9YT63u_g,4.4,"['meal_delivery', 'restaurant', 'food', 'point_of_interest', 'establishment']",237,1.0,,"902 Cortelyou Road, Brooklyn",40.6387852,-73.9696255
544,Taqueria Maria and Ricardo,ChIJqfLTJTJbwokRV8x6YTMThyk,4.4,"['meal_delivery', 'restaurant', 'food', 'point_of_interest', 'establishment']",116,1.0,,"915 Cortelyou Road, Brooklyn",40.63909659999999,-73.969233
545,Shandar,ChIJc-yovDFbwokRFVY9bKiSuuE,4.3,"['restaurant', 'food', 'point_of_interest', 'establishment']",166,1.0,,"679 Coney Island Avenue, Brooklyn",40.640913,-73.9690455
546,Hadi Restaurant,ChIJBcqYozFbwokRs07RY58TteQ,4.1,"['restaurant', 'food', 'point_of_interest', 'establishment']",471,1.0,,"683 Coney Island Avenue, Brooklyn",40.6408116,-73.968997
547,Punjab Restaurant,ChIJ3062ojFbwokRUrwIg0LKL1M,4.1,"['restaurant', 'food', 'point_of_interest', 'establishment']",171,1.0,,"691 Coney Island Avenue, Brooklyn",40.6407245,-73.9689594
548,Mondayoff by Plant Love House,ChIJZzzuKDJbwokRWWn-wAcOniM,4.5,"['meal_delivery', 'restaurant', 'food', 'point_of_interest', 'establishment']",123,2.0,,"752 Coney Island Avenue, Brooklyn",40.6391724,-73.96892319999999
549,Mashallah Sweets and Restaurant,ChIJxfj6uKtbwokRkiBRSCD9HDI,4.2,"['restaurant', 'food', 'point_of_interest', 'establishment']",18,,,"663 Coney Island Avenue, Brooklyn",40.6412326,-73.9691589
550,Mashallah Halal Restaurant,ChIJn0j-OZxbwokRCcUxy5hEqGs,4.0,"['meal_delivery', 'restaurant', 'food', 'point_of_interest', 'establishment']",108,,,"663 Coney Island Avenue, Brooklyn",40.6412105,-73.9691263
551,Pizza’s San Miguel,ChIJDQTjLjJbwokRbF7dNC0oSXk,4.0,"['meal_delivery', 'restaurant', 'food', 'point_of_interest', 'establishment']",52,,,"760 Coney Island Avenue, Brooklyn",40.63884830000001,-73.9689758
552,Andrew’s Classic BKLYN Luncheonette,ChIJ73dFeqFbwokRMskYW2KqDFw,4.0,"['restaurant', 'food', 'point_of_interest', 'establishment']",69,,,"1017 Cortelyou Road, Brooklyn",40.639544,-73.9685121
553,George's,ChIJ-XCgLjJbwokRdYOwZ3ZY-tM,4.5,"['restaurant', 'food', 'point_of_interest', 'establishment']",451,1.0,,"753 Coney Island Avenue, Brooklyn",40.6390287,-73.96851520000001
554,Gourmet banquet,ChIJuYwdFQBbwokRALVTv1NFohQ,4.8,"['restaurant', 'food', 'point_of_interest', 'establishment']",4,,,"786 Coney Island Avenue, Brooklyn",40.6382322,-73.9688152
555,Gourmet Palace,ChIJq6paNjJbwokRH_1BR5FzHdo,3.0,"['restaurant', 'food', 'point_of_interest', 'establishment']",23,,,"786 Coney Island Avenue, Brooklyn",40.6382322,-73.9688152
556,Grill N Dine,ChIJnbha4eFbwokRcE2OQeRsY5Q,4.2,"['restaurant', 'food', 'point_of_interest', 'establishment']",45,,,"786 Coney Island Avenue, Brooklyn",40.6382322,-73.9688152
557,773 Lounge,ChIJYeFIMjJbwokREpWSPMA2LL4,4.3,"['night_club', 'bar', 'restaurant', 'food', 'point_of_interest', 'establishment']",216,1.0,,"773 Coney Island Avenue, Brooklyn",40.63866420000001,-73.96838559999999
558,Lea,ChIJgRZtfjFbwokRmIYuir0vvHI,4.2,"['meal_delivery', 'bar', 'restaurant', 'food', 'point_of_interest', 'establishment']",311,2.0,,"1022 Cortelyou Road, Brooklyn",40.6394194,-73.968
559,Gyro Cafe,ChIJA5jFPTBbwokRmHLX3W6dXL8,4.2,"['restaurant', 'food', 'point_of_interest', 'establishment']",303,1.0,,"580 Coney Island Avenue, Brooklyn",40.6431541,-73.970152
560,Angelica`s Coffee Shop,ChIJlW9fQC9bwokRB0yn8u-kqOo,4.2,"['restaurant', 'food', 'point_of_interest', 'establishment']",196,1.0,,"424 Church Avenue, Brooklyn",40.644152,-73.97583700000001
561,Thai Farm Kitchen,ChIJJd3gHKhbwokR_ixZq0N0h8Q,4.6,"['restaurant', 'food', 'point_of_interest', 'establishment']",205,2.0,,"416 Church Avenue, Brooklyn",40.6440393,-73.97609179999999
562,Asia Harbor,ChIJf9KmNy9bwokREDTfTalXH38,4.3,"['meal_delivery', 'restaurant', 'food', 'point_of_interest', 'establishment']",137,2.0,,"404 Church Avenue, Brooklyn",40.6439161,-73.9763292
563,Sake Sushi,ChIJN_LXMi9bwokR5uaUzgKNlBg,4.0,"['restaurant', 'food', 'point_of_interest', 'establishment']",158,2.0,,"328 Church Avenue, Brooklyn",40.6438008,-73.976716
564,Super 403,ChIJm-noRy9bwokRQ2cHxm1C_wQ,4.0,"['meal_delivery', 'restaurant', 'food', 'point_of_interest', 'establishment']",59,1.0,,"403 Church Avenue, Brooklyn",40.6442294,-73.9764016
565,JW Real Polish Delicatessen,ChIJT1yaNC9bwokRK__b2SyMD_Y,4.6,"['grocery_or_supermarket', 'restaurant', 'food', 'point_of_interest', 'store', 'establishment']",52,,,"321 Church Avenue, Brooklyn",40.6439985,-73.9770109
566,Korner Pizza,ChIJ-0hC1yhbwokRZx27JHCZlZY,4.2,"['meal_delivery', 'restaurant', 'food', 'point_of_interest', 'establishment']",308,2.0,,"226 Church Avenue # 1, Brooklyn",40.6433681,-73.9775507
567,Wing Hua II,ChIJ8e9HzihbwokRa4Q8GeNPMcE,3.6,"['restaurant', 'food', 'point_of_interest', 'establishment']",48,2.0,,"223 Church Avenue #3919, Brooklyn",40.6437484,-73.9775784
568,Halal Xpress Chinese Kitchen,ChIJ8eOW6l5bwokRHAHhL4COBGc,4.1,"['meal_delivery', 'restaurant', 'food', 'point_of_interest', 'establishment']",176,,,"221 Church Avenue, Brooklyn",40.6436838,-73.977671
569,Soho Cafe & Grill,ChIJ0yR_0ChbwokREM8jV8Lo2KI,3.8,"['meal_delivery', 'restaurant', 'food', 'point_of_interest', 'establishment']",156,2.0,,"215 Church Avenue, Brooklyn",40.6436501,-73.9778604
570,To Be Thai,ChIJs1Y7IylbwokRrXCTAgp_0Qc,4.2,"['meal_delivery', 'restaurant', 'food', 'point_of_interest', 'establishment']",155,1.0,,"126 Beverley Road, Brooklyn",40.6427139,-73.9783556
571,Yummy Taco,ChIJhaU53ihbwokR4QWfTGiLNLk,3.8,"['meal_delivery', 'restaurant', 'food', 'point_of_interest', 'establishment']",148,1.0,,"129 Church Avenue, Brooklyn",40.64337700000001,-73.978467
572,Beverley Pizza & Cafe,ChIJSR5FIylbwokRtOH1ehlLY9c,4.0,"['meal_delivery', 'meal_takeaway', 'restaurant', 'food', 'point_of_interest', 'establishment']",141,1.0,,"358 East 2nd Street, Brooklyn",40.6425556,-73.978324
573,Tacos el Chicken Food Truck,ChIJm2Yf9tdbwokRmsaAU3c-34c,4.8,"['restaurant', 'food', 'point_of_interest', 'establishment']",24,,,"120 Beverley Road, Brooklyn",40.64264189999999,-73.9785831
574,Primavera,ChIJ0-5LZSVbwokRcJxURKrFADo,3.9,"['meal_delivery', 'restaurant', 'food', 'point_of_interest', 'establishment']",44,,,"623 Church Avenue, Brooklyn",40.6455157,-73.97343350000001
575,Dunkin',ChIJs60gGilbwokRPAiyqqnAHa0,3.7,"['bakery', 'meal_takeaway', 'cafe', 'restaurant', 'food', 'point_of_interest', 'store', 'establishment']",263,1.0,,"110 Beverley Road, Brooklyn",40.6427863,-73.9789843
576,Mezbani Sweets & Restaurant,ChIJv5pr5m1bwokRlIImzWl_JWc,5.0,"['restaurant', 'food', 'point_of_interest', 'establishment']",2,,,"473 McDonald Avenue, Brooklyn",40.6426041,-73.9791628
577,Khabar Ghar,ChIJs31P2N1bwokRIBkhNjBGrlU,3.7,"['restaurant', 'food', 'point_of_interest', 'establishment']",3,,,"473 McDonald Avenue, Brooklyn",40.6426041,-73.9791628
578,Uni Thai Bistro,ChIJa0v5oOdbwokRA_YLpIXStqA,5.0,"['restaurant', 'food', 'point_of_interest', 'establishment']",6,,,"265 East 7th Street, Brooklyn",40.64568999999999,-73.9729839
579,Radhuni,ChIJUxgqEilbwokRg-1L6TvnJkM,4.0,"['restaurant', 'food', 'point_of_interest', 'establishment']",254,1.0,,"483 McDonald Avenue, Brooklyn",40.642395,-73.9790921
580,465 ocean parkwy,ChIJm6E2yzpbwokRB64ravd9CwI,5.0,"['restaurant', 'food', 'point_of_interest', 'establishment']",1.0,,,"465 Ocean Parkway Service Road, Brooklyn",40.6370755,-73.9724037
581,No. 1,ChIJ0Qmt2SxbwokRnveNG4ivumg,3.2,"['meal_delivery', 'restaurant', 'food', 'point_of_interest', 'establishment']",92.0,2.0,,"420 Ditmas Avenue, Brooklyn",40.6357375,-73.974357
582,David’s Pizzeria & Restaurant,ChIJV9zY_JZbwokR2t5Mh8N5QX8,4.7,"['restaurant', 'food', 'point_of_interest', 'establishment']",31.0,,,"418 Ditmas Avenue, Brooklyn",40.635813,-73.974436
583,Taj Kebab,ChIJnTRr1yxbwokRQPye8LHjhqg,4.2,"['restaurant', 'food', 'point_of_interest', 'establishment']",195.0,,,"414 Ditmas Avenue, Brooklyn",40.6357452,-73.97444709999999
584,No. 1 Chinese Food,ChIJzwDc2SxbwokR4okM3Un2fLM,,"['restaurant', 'food', 'point_of_interest', 'establishment']",,,,United States,40.6358416,-73.97444039999999
585,Tandir Kebab,ChIJz1k_yixbwokRDpc4rGEDU3k,4.5,"['restaurant', 'food', 'point_of_interest', 'establishment']",275.0,,,"312 Ditmas Avenue, Brooklyn",40.6356262,-73.9755189
586,Ginger House Vegan,ChIJmda2ySxbwokRSb3Vos_YKH4,4.3,"['meal_delivery', 'restaurant', 'food', 'point_of_interest', 'establishment']",114.0,,,"310 Ditmas Avenue, Brooklyn",40.6356075,-73.9755596
587,Randazzo Pizzeria,ChIJ9WkPtixbwokRnRwvC9dFcJs,4.2,"['meal_delivery', 'restaurant', 'food', 'point_of_interest', 'establishment']",135.0,2.0,,"306 Ditmas Avenue, Brooklyn",40.63559799999999,-73.975645
588,Kosher Pizza King,ChIJH51T8tJEwokRpt6KiVcoOOQ,4.4,"['restaurant', 'food', 'point_of_interest', 'establishment']",188.0,1.0,,"3916 18th Avenue, Brooklyn",40.6329231,-73.9728903
589,McDonald's,ChIJ244aHjNbwokRbm2Py52SBM8,3.3,"['cafe', 'restaurant', 'food', 'point_of_interest', 'store', 'establishment']",1317.0,1.0,,"880 Coney Island Avenue, Brooklyn",40.6358013,-73.9681507
590,Tandir Express,ChIJX51o9dJEwokRm0LMw82K-aY,3.9,"['restaurant', 'food', 'point_of_interest', 'establishment']",304.0,2.0,,"3915 18th Avenue, Brooklyn",40.6325975,-73.9729
591,Dunkin',ChIJm7DuIjNbwokR1kF2fauGEas,3.7,"['bakery', 'meal_takeaway', 'cafe', 'restaurant', 'food', 'point_of_interest', 'store', 'establishment']",421.0,1.0,,"906 Coney Island Avenue, Brooklyn",40.6352681,-73.96813039999999
592,John Moore's Deli,ChIJn8w5UzJbwokRCTXbquxh5UM,3.7,"['liquor_store', 'restaurant', 'food', 'point_of_interest', 'store', 'establishment']",30.0,1.0,,"830 Coney Island Avenue, Brooklyn",40.6371999,-73.9683759
593,Ankara,ChIJt24fgchFwokRgSLyIQXa4Yg,4.6,"['restaurant', 'food', 'point_of_interest', 'establishment']",43.0,,,"4106 18th Avenue, Brooklyn",40.6323819,-73.97381589999999
594,Cafe Samarkand,ChIJRw9kRSxbwokRJhdZs9jkpdc,4.3,"['restaurant', 'food', 'point_of_interest', 'establishment']",44.0,,,"413 Cortelyou Road, Brooklyn",40.63846729999999,-73.97494669999999
595,Gourmet banquet,ChIJuYwdFQBbwokRALVTv1NFohQ,4.8,"['restaurant', 'food', 'point_of_interest', 'establishment']",4.0,,,"786 Coney Island Avenue, Brooklyn",40.6382322,-73.9688152
596,Gourmet Palace,ChIJq6paNjJbwokRH_1BR5FzHdo,3.0,"['restaurant', 'food', 'point_of_interest', 'establishment']",23.0,,,"786 Coney Island Avenue, Brooklyn",40.6382322,-73.9688152
597,Grill N Dine,ChIJnbha4eFbwokRcE2OQeRsY5Q,4.2,"['restaurant', 'food', 'point_of_interest', 'establishment']",45.0,,,"786 Coney Island Avenue, Brooklyn",40.6382322,-73.9688152
598,One Two Free Sushi,ChIJMzJ9Pn9bwokRDFWzFWTzk7A,4.2,"['restaurant', 'food', 'point_of_interest', 'establishment']",38.0,,,"318 Cortelyou Road, Brooklyn",40.6380974,-73.9757812
599,Mexico Diner,ChIJvZkkPTJbwokRJb-9YT63u_g,4.4,"['meal_delivery', 'restaurant', 'food', 'point_of_interest', 'establishment']",237.0,1.0,,"902 Cortelyou Road, Brooklyn",40.6387852,-73.9696255
600,Kreyol Flavor,ChIJp_pDYEJbwokRMWZjHKuFtzc,4.0,"['restaurant', 'food', 'point_of_interest', 'establishment']",209.0,,,"2816 Church Avenue, Brooklyn",40.65056939999999,-73.9508137
601,Nio's Roti Shop,ChIJl3_SP0JbwokR5ttXUbwB5ak,3.9,"['restaurant', 'food', 'point_of_interest', 'establishment']",216.0,1.0,,"2702 Church Avenue, Brooklyn",40.6505685,-73.9522691
602,Twist Pizza Corp,ChIJIYeQFUJbwokRE4RNrSv-K4U,4.0,"['meal_delivery', 'restaurant', 'food', 'point_of_interest', 'establishment']",48.0,,,"2703 Church Avenue, Brooklyn",40.6508074,-73.9522203
603,Flame Gyro,ChIJR4iNV4RbwokRpMbE4Y7g12k,4.3,"['restaurant', 'food', 'point_of_interest', 'establishment']",62.0,,,"2701 Church Avenue, Brooklyn",40.6508026,-73.9523255
604,Bebe Fritay,ChIJs1lQPEJbwokRPTXpJP1VgAQ,3.8,"['restaurant', 'food', 'point_of_interest', 'establishment']",192.0,,,"826 Rogers Avenue, Brooklyn",40.6504817,-73.95266269999999
605,Rama's Roti Shop,ChIJtZoWx79bwokRfr4eWqZnPyU,3.3,"['restaurant', 'food', 'point_of_interest', 'establishment']",7.0,,,"2831 Church Avenue, Brooklyn",40.6510134,-73.95033289999999
606,Supreme Jamaican Restaurant,ChIJQ0LnvwtbwokRGn-8rP-myjE,5.0,"['restaurant', 'food', 'point_of_interest', 'establishment']",3.0,,,"801 Rogers Avenue, Brooklyn",40.6512151,-73.9523377
607,Nuts,ChIJLX0mMUJbwokRd7Epsf6nphc,,"['restaurant', 'food', 'point_of_interest', 'establishment']",,,,"852 Rogers Avenue, Brooklyn",40.649865,-73.95257099999999
608,Rantab Restaurant,ChIJpyVUi4ZbwokRX0y6mORMeyw,5.0,"['restaurant', 'meal_takeaway', 'food', 'point_of_interest', 'establishment']",3.0,,,"2602 Church Avenue, Brooklyn",40.6505413,-73.95282399999999
609,Denize's Sports Bar,ChIJrQonPUJbwokRRflxQ5v0yL8,3.9,"['bar', 'restaurant', 'food', 'point_of_interest', 'establishment']",10.0,,,"2602 Church Avenue, Brooklyn",40.6505413,-73.95282399999999
610,Creole Corner,ChIJt3lMPUJbwokRyD3D6JFlXuc,4.6,"['restaurant', 'food', 'point_of_interest', 'establishment']",10.0,,,"2602 Church Avenue, Brooklyn",40.6505413,-73.95282399999999
611,Leo Buffet,ChIJWXzVNkJbwokRYLoQT2AY3pQ,4.5,"['restaurant', 'food', 'point_of_interest', 'establishment']",4.0,,,"854 Rogers Avenue, Brooklyn",40.6498466,-73.95259999999999
612,Sajomita Restaurant,ChIJCeg-MUJbwokRTLJnQn3rUAw,3.6,"['restaurant', 'food', 'point_of_interest', 'establishment']",20.0,,,"854 Rogers Avenue, Brooklyn",40.6498193,-73.952589
613,Burger King,ChIJyfEqkkJbwokRDOpqrGMUnFA,3.5,"['restaurant', 'food', 'point_of_interest', 'establishment']",572.0,1.0,,"2848 Church Avenue, Brooklyn",40.6505596,-73.9498141
614,Exquisite Express,ChIJORfFj0JbwokRHRUFDDzJAGk,4.2,"['restaurant', 'food', 'point_of_interest', 'establishment']",261.0,2.0,,"2847 Church Avenue, Brooklyn",40.6509277,-73.9498729
615,Dougie's Jamaican Cuisine,ChIJwzVGnEJbwokRkyk-qSbUncM,3.9,"['restaurant', 'food', 'point_of_interest', 'establishment']",8.0,,,"1436 Nostrand Avenue, Brooklyn",40.651219,-73.949916
616,Caribbean Vibes,ChIJwzVGnEJbwokRN6TegtvGAcc,3.9,"['bakery', 'restaurant', 'food', 'point_of_interest', 'store', 'establishment']",466.0,2.0,,"1436 Nostrand Avenue, Brooklyn",40.651219,-73.949916
617,Kam Man,ChIJ4etm70JbwokR83DE33UphbI,4.3,"['restaurant', 'food', 'point_of_interest', 'establishment']",156.0,1.0,,"1500 Nostrand Avenue, Brooklyn",40.6496706,-73.9496751
618,Dunkin',ChIJteGqlUJbwokR97z-RzT59g4,4.0,"['bakery', 'meal_takeaway', 'cafe', 'restaurant', 'food', 'point_of_interest', 'store', 'establishment']",225.0,1.0,,"1467 Nostrand Avenue, Brooklyn",40.65039700000001,-73.949299
619,Subway,ChIJ91MCrK9fwokR9FTrM2FY2qQ,3.7,"['meal_takeaway', 'restaurant', 'food', 'point_of_interest', 'establishment']",78.0,1.0,,"3005 Church Avenue, Brooklyn",40.65100749999999,-73.9492218
620,IHOP,ChIJ34ZjUUBbwokRQsEzDa7zhsE,4.0,"['restaurant', 'food', 'point_of_interest', 'establishment']",1686,1.0,,"2244 Church Avenue, Brooklyn",40.6503628,-73.9571404
621,Golden Krust Caribbean Restaurant,ChIJkzmVXUBbwokRsJb8YOk5nKY,3.9,"['bakery', 'restaurant', 'food', 'point_of_interest', 'store', 'establishment']",120,1.0,,"2223 Church Avenue, Brooklyn",40.6505707,-73.9579614
622,Lotus Vegetarian,ChIJc9xlPptbwokRWt-b1iysKAQ,4.4,"['restaurant', 'food', 'point_of_interest', 'establishment']",37,,,"2249 Church Avenue, Brooklyn",40.6507184,-73.9571636
623,Natural Blend Vegetarian Cafe & Juice Bar,ChIJlzdbsz5bwokR2Ikfn1jb9uA,4.8,"['restaurant', 'food', 'point_of_interest', 'establishment']",52,,,"2251 Church Avenue, Brooklyn",40.6506973,-73.9570832
624,Delectible Edibles,ChIJaeniTUBbwokR21qHv4J8gfw,5.0,"['restaurant', 'food', 'point_of_interest', 'establishment']",3,,,"2259 Church Avenue #2fl, Brooklyn",40.6506984,-73.9569151
625,CJ Cafe Flatbush (formerly C&J Jamaican Restaurant),ChIJq2Y6e0BbwokRieGofMea42Y,3.6,"['bakery', 'restaurant', 'food', 'point_of_interest', 'store', 'establishment']",190,1.0,,"875 Flatbush Avenue, Brooklyn",40.65080650000001,-73.9585615
626,Dunkin',ChIJdSV0ekBbwokRMPCpGWs7cXg,4.0,"['bakery', 'meal_takeaway', 'cafe', 'restaurant', 'food', 'point_of_interest', 'store', 'establishment']",346,1.0,,"873 Flatbush Avenue, Brooklyn",40.650851,-73.95856859999999
627,China Thai,ChIJi0KLb0BbwokR9h6pV2viV-I,3.7,"['meal_delivery', 'restaurant', 'food', 'point_of_interest', 'establishment']",80,,,"867 Flatbush Avenue, Brooklyn",40.6510057,-73.95854469999999
628,Kitchen Time,ChIJM_MRb0BbwokR6DtkTOO64dg,3.4,"['restaurant', 'food', 'point_of_interest', 'establishment']",25,,,"867 Flatbush Avenue, Brooklyn",40.65098539999999,-73.95870110000001
629,Four Seasons Bakery & Juice Bar,ChIJ8UEUsUFbwokRYKJABbWCpjg,4.7,"['restaurant', 'food', 'point_of_interest', 'establishment']",69,,,"2281 Church Avenue, Brooklyn",40.6507663,-73.95613759999999
630,McDonald's,ChIJg0sUv0BbwokRtxaW0gw8DTg,3.7,"['cafe', 'restaurant', 'food', 'point_of_interest', 'store', 'establishment']",773,1.0,,"943 Flatbush Avenue, Brooklyn",40.648707,-73.9581524
631,Shell,ChIJSSZvpEFbwokRiy7iGIxwr6Q,3.2,"['gas_station', 'atm', 'convenience_store', 'finance', 'restaurant', 'food', 'point_of_interest', 'store', 'establishment']",27,2.0,,"2193 Bedford Avenue, Brooklyn",40.6503536,-73.9555451
632,KFC,ChIJte9hukBbwokRbjhMNWA8dPQ,3.4,"['restaurant', 'food', 'point_of_interest', 'establishment']",239,1.0,,"942 Flatbush Avenue, Brooklyn",40.6485212,-73.9585044
633,Caribbean Social,ChIJwbF8DUBbwokRexAvPgttrUA,4.1,"['restaurant', 'food', 'point_of_interest', 'establishment']",962,2.0,,"847 Flatbush Avenue, Brooklyn",40.6516512,-73.95875939999999
634,Mandeville Bistro,ChIJM-R-ukBbwokR6qfuRHks4Zo,4.3,"['restaurant', 'food', 'point_of_interest', 'establishment']",116,1.0,,"944 Flatbush Avenue, Brooklyn",40.6484461,-73.958564
635,Wingstop,ChIJPZnVaCNbwokR1TwAgOT1iA4,3.1,"['restaurant', 'food', 'point_of_interest', 'establishment']",32,2.0,,"946 Flatbush Avenue, Brooklyn",40.64840239999999,-73.9584797
636,Burger King,ChIJD9VxykBbwokRHVvIuAN0VKw,3.6,"['restaurant', 'food', 'point_of_interest', 'establishment']",448,1.0,,"971 Flatbush Avenue, Brooklyn",40.6478978,-73.95795199999999
