,name,categories,address,crossStreet,lat,lng,labeledLatLngs,distance,postalCode,cc,city,state,country,formattedAddress,neighborhood,id,isFuzzed,isServiceAreaBusiness,Re_categorie,Categorie_short,Rating,Likes,Price,Rating_signals,Dislikes,Tips,Rating_signalrating,Borough,Neighborhood,GeoID
0,403 Restaurant,Chinese Restaurant,403 Church Ave,East 4th St,40.63945917816107,-73.97972826097855,"[{'label': 'display', 'lat': 40.63945917816107, 'lng': -73.97972826097855}]",103,11218,US,Brooklyn,NY,United States,"['403 Church Ave (East 4th St)', 'Brooklyn, NY 11218', 'United States']",,4c7c6874247cb60c6f375e5e,,,Chinese Restaurant,Chinese,,0.0,2.0,,,0.0,,Brooklyn,Kensington-Ocean Parkway,BK41
3,Mi Barrio Taqueria Restaurant,Mexican Restaurant,3415 14th Ave,,40.641597999999995,-73.98145799999998,"[{'label': 'display', 'lat': 40.641597999999995, 'lng': -73.98145799999999}, {'label': 'entrance', 'lat': 40.641641, 'lng': -73.981463}]",228,11218,US,Brooklyn,NY,United States,"['3415 14th Ave', 'Brooklyn, NY 11218', 'United States']",,514bbad4e4b068662028db31,,,Mexican Restaurant,Mexican,,4.0,2.0,,,2.0,,Brooklyn,Borough Park,BK88
4,Ghoroa Sweets and Restaurant,Restaurant,,,40.642388000000004,-73.979681,"[{'label': 'display', 'lat': 40.642388000000004, 'lng': -73.979681}, {'label': 'entrance', 'lat': 40.642404, 'lng': -73.979542}]",329,11218,US,Brooklyn,NY,United States,"['Brooklyn, NY 11218', 'United States']",,4cb72a73e262b60c083a74e0,,,Restaurant,Restaurant,6.7,5.0,1.0,,,3.0,9.0,Brooklyn,Kensington-Ocean Parkway,BK41
9,New Fulin Kwok Seafood Restaurant,Seafood Restaurant,4619 8th Ave,,40.64282,-74.00153399999998,"[{'label': 'display', 'lat': 40.64282, 'lng': -74.00153399999999}, {'label': 'entrance', 'lat': 40.6429, 'lng': -74.001667}]",334,11220,US,Brooklyn,NY,United States,"['4619 8th Ave', 'Brooklyn, NY 11220', 'United States']",,4b2489eff964a5208b6824e3,,,Seafood Restaurant,Seafood,,0.0,,,,0.0,,Brooklyn,Sunset Park East,BK34
10,Theresa's Polish American Restaurant,European Restaurant,4503 8th Ave,,40.6437,-74.000801,"[{'label': 'display', 'lat': 40.6437, 'lng': -74.000801}]",352,11220,US,Brooklyn,NY,United States,"['4503 8th Ave', 'Brooklyn, NY 11220', 'United States']",,4f324bd719836c91c7c9ba0c,,,Food,Food,,0.0,,,,0.0,,Brooklyn,Sunset Park East,BK34
11,King Chinese Restaurant,Chinese Restaurant,4503 8th Ave,,40.643611,-74.000919,"[{'label': 'display', 'lat': 40.643611, 'lng': -74.000919}]",351,11220,US,Brooklyn,NY,United States,"['4503 8th Ave', 'Brooklyn, NY 11220', 'United States']",,4f3242e419836c91c7c62414,,,Chinese Restaurant,Chinese,,0.0,,,,0.0,,Brooklyn,Sunset Park East,BK34
12,Daky Restaurant,Chinese Restaurant,4610 8th Ave,,40.643268,-74.0017,"[{'label': 'display', 'lat': 40.643268, 'lng': -74.0017}, {'label': 'entrance', 'lat': 40.643236, 'lng': -74.00169}]",374,11220,US,Brooklyn,NY,United States,"['4610 8th Ave', 'Brooklyn, NY 11220', 'United States']",,4d0f9fc07177b1f74a814c22,,,Chinese Restaurant,Chinese,,0.0,,,,0.0,,Brooklyn,Sunset Park East,BK34
14,Liu Liu Seafood Restaurant,Chinese Restaurant,4508 8th Ave,,40.64369583129883,-74.00119018554688,"[{'label': 'display', 'lat': 40.64369583129883, 'lng': -74.00119018554688}]",373,11220,US,Brooklyn,NY,United States,"['4508 8th Ave', 'Brooklyn, NY 11220', 'United States']",,56132187498ed04037f7210d,,,Chinese Restaurant,Chinese,,0.0,,,,1.0,,Brooklyn,Sunset Park East,BK34
15,Mei Hao Restaurant,Restaurant,4415 8th Ave,,40.64416,-74.000524,"[{'label': 'display', 'lat': 40.64416, 'lng': -74.000524}]",380,11220,US,Brooklyn,NY,United States,"['4415 8th Ave', 'Brooklyn, NY 11220', 'United States']",,563d4f5ecd107fbf8abd6551,,,Restaurant,Restaurant,,0.0,,,,0.0,,Brooklyn,Sunset Park East,BK34
18,Masbia Restaurant,American Restaurant,,,40.63791961709136,-73.98566874928272,"[{'label': 'display', 'lat': 40.637919617091356, 'lng': -73.98566874928272}, {'label': 'entrance', 'lat': 40.637949, 'lng': -73.985676}]",288,,US,Brooklyn,NY,United States,"['Brooklyn, NY', 'United States']",,5254952d11d2313bbecf8872,,,American Restaurant,American,,0.0,,,,0.0,,Brooklyn,Borough Park,BK88
20,Perla Restaurant,European Restaurant,3913 13th Ave,,40.64004267988247,-73.98690264457271,"[{'label': 'display', 'lat': 40.64004267988247, 'lng': -73.98690264457271}]",511,11218,US,Brooklyn,NY,United States,"['3913 13th Ave', 'Brooklyn, NY 11218', 'United States']",,4ec3dad0cc213c5f1f88b6f8,,,Spanish Restaurant,Spanish,,1.0,,,,1.0,,Brooklyn,Borough Park,BK88
22,La Asuncion Mexican Restaurant,Mexican Restaurant,3914 Fort Hamilton Pkwy,,40.642988,-73.99115400000002,"[{'label': 'display', 'lat': 40.642988, 'lng': -73.99115400000001}, {'label': 'entrance', 'lat': 40.642947, 'lng': -73.991087}]",501,11218,US,Brooklyn,NY,United States,"['3914 Fort Hamilton Pkwy', 'Brooklyn, NY 11218', 'United States']",,4c4a0d28bad7a593df72d6a9,,,Mexican Restaurant,Mexican,,2.0,,,,1.0,,Brooklyn,Sunset Park East,BK34
23,Vi Min Chinese Restaurant,Chinese Restaurant,3821 Fort Hamilton Pkwy,39th Street,40.64313888549805,-73.99005889892578,"[{'label': 'entrance', 'lat': 40.643208, 'lng': -73.990163}, {'label': 'display', 'lat': 40.64313888549805, 'lng': -73.99005889892578}]",479,11218,US,Brooklyn,NY,United States,"['3821 Fort Hamilton Pkwy (39th Street)', 'Brooklyn, NY 11218', 'United States']",,4bf808a75317a5935202ff7e,,,Chinese Restaurant,Chinese,,0.0,,,,0.0,,Brooklyn,Borough Park,BK88
24,Ocean Port Restaurant,Chinese Restaurant,6202 18th Ave,,40.62089538574219,-73.98875427246094,"[{'label': 'entrance', 'lat': 40.620828, 'lng': -73.988638}, {'label': 'display', 'lat': 40.62089538574219, 'lng': -73.98875427246094}]",606,11204,US,Brooklyn,NY,United States,"['6202 18th Ave', 'Brooklyn, NY 11204', 'United States']",,4db9bfed432d6a71bf57e161,,,Chinese Restaurant,Chinese,,0.0,,,,1.0,,Brooklyn,Bensonhurst West,BK28
25,Finest Ever Luck Restaurant,Chinese Restaurant,6103 20th Ave,61st Street,40.61852264404297,-73.9833755493164,"[{'label': 'entrance', 'lat': 40.618602, 'lng': -73.983504}, {'label': 'display', 'lat': 40.61852264404297, 'lng': -73.9833755493164}]",370,11204,US,Brooklyn,NY,United States,"['6103 20th Ave (61st Street)', 'Brooklyn, NY 11204', 'United States']",,503823d8e4b03509a9433cf4,,,Chinese Restaurant,Chinese,,1.0,,,,1.0,,Brooklyn,Borough Park,BK88
26,Happy Family Restaurant,Asian Restaurant,,,40.619722780130985,-73.98632300172633,"[{'label': 'display', 'lat': 40.619722780130985, 'lng': -73.98632300172633}]",446,11204,US,Brooklyn,NY,United States,"['Brooklyn, NY 11204', 'United States']",,4ec930a061af9e1431c28a8d,,,Asian Restaurant,Asian,,0.0,,,,0.0,,Brooklyn,Bensonhurst West,BK28
27,Danza's Italian Restaurant,Italian Restaurant,6205 18th Ave,,40.62054443359375,-73.98834228515625,"[{'label': 'display', 'lat': 40.62054443359375, 'lng': -73.98834228515625}]",578,11204,US,Brooklyn,NY,United States,"['6205 18th Ave', 'Brooklyn, NY 11204', 'United States']",,4e4cdeb1bd413c4cc66cd44f,,,Italian Restaurant,Italian,,0.0,2.0,,,0.0,,Brooklyn,Bensonhurst West,BK28
28,Silver Star Restaurant,Chinese Restaurant,6221 18th Ave,,40.620417089958046,-73.98882794517985,"[{'label': 'display', 'lat': 40.620417089958046, 'lng': -73.98882794517985}, {'label': 'entrance', 'lat': 40.620365, 'lng': -73.988743}]",621,11204,US,Brooklyn,NY,United States,"['6221 18th Ave', 'Brooklyn, NY 11204', 'United States']",,4aece020f964a520f7cb21e3,,,Chinese Restaurant,Chinese,7.7,7.0,1.0,,,7.0,15.0,Brooklyn,Bensonhurst West,BK28
29,Friend's Villa Restaurant,Chinese Restaurant,6210 18th Ave,,40.62089009350265,-73.988683131407,"[{'label': 'display', 'lat': 40.62089009350265, 'lng': -73.988683131407}, {'label': 'entrance', 'lat': 40.620687, 'lng': -73.988783}]",600,11204,US,Brooklyn,NY,United States,"['6210 18th Ave', 'Brooklyn, NY 11204', 'United States']",,4dc487f018387d1bd5263f7e,,,Chinese Restaurant,Chinese,,1.0,,,,1.0,,Brooklyn,Bensonhurst West,BK28
30,Good Day Seafood Restaurant,Chinese Restaurant,,62nd st and 18th ave,40.620834330117006,-73.98868475501934,"[{'label': 'display', 'lat': 40.62083433011701, 'lng': -73.98868475501934}]",601,11204,US,Brooklyn,NY,United States,"['62nd st and 18th ave', 'Brooklyn, NY 11204', 'United States']",,4fa01b38e4b07d344023a592,,,Chinese Restaurant,Chinese,6.0,17.0,2.0,,,10.0,32.0,Brooklyn,Bensonhurst West,BK28
31,Wing xin chinese restaurant,Chinese Restaurant,6001 14th Ave,,40.627223,-73.996378,"[{'label': 'display', 'lat': 40.627223, 'lng': -73.996378}, {'label': 'entrance', 'lat': 40.627311, 'lng': -73.996378}]",186,11219,US,Brooklyn,NY,United States,"['6001 14th Ave', 'Brooklyn, NY 11219', 'United States']",,4c530856f5f3d13a9640d2f7,,,Chinese Restaurant,Chinese,,1.0,,,,0.0,,Brooklyn,Borough Park,BK88
32,Polskie Noce Polish Restaurant,European Restaurant,Between 39th and 40th street on 13th Avenue,,40.62212,-73.99844,"[{'label': 'display', 'lat': 40.62212, 'lng': -73.99844}]",538,,US,Brooklyn,NY,United States,"['Between 39th and 40th street on 13th Avenue', 'Brooklyn, NY', 'United States']",,4c7969d8bd346dcb7c5df5ef,,,Eastern European Restaurant,Eastern European,,0.0,,,,0.0,,Brooklyn,Bensonhurst West,BK28
33,Star,Mexican Restaurant,6012 New Utrecht Ave,,40.627404,-73.996912,"[{'label': 'display', 'lat': 40.627404, 'lng': -73.996912}, {'label': 'entrance', 'lat': 40.627332, 'lng': -73.996794}]",148,11219,US,Brooklyn,NY,United States,"['6012 New Utrecht Ave', 'Brooklyn, NY 11219', 'United States']",,4e4dce7fbd41b76bef93688a,,,Mexican Restaurant,Mexican,,1.0,2.0,,,0.0,,Brooklyn,Borough Park,BK88
35,Progreso Restaurant,Latin American Restaurant,5303 Fort Hamilton Pkwy,at 53rd St,40.63634258216429,-74.00053809384764,"[{'label': 'display', 'lat': 40.63634258216429, 'lng': -74.00053809384764}, {'label': 'entrance', 'lat': 40.636259, 'lng': -74.000539}]",120,11219,US,Brooklyn,NY,United States,"['5303 Fort Hamilton Pkwy (at 53rd St)', 'Brooklyn, NY 11219', 'United States']",,4ffe354be4b0bd73f8fe126b,,,Latin American Restaurant,Latin American,,3.0,,,,0.0,,Brooklyn,Borough Park,BK88
36,Lucky 1 Chinese Restaurant,Chinese Restaurant,,,40.63655922179822,-74.0004864462488,"[{'label': 'display', 'lat': 40.63655922179823, 'lng': -74.00048644624879}]",141,11220,US,Brooklyn,NY,United States,"['Brooklyn, NY 11220', 'United States']",,4cb4e96c589f236a787b2c3d,,,Chinese Restaurant,Chinese,,0.0,,,,1.0,,Brooklyn,Borough Park,BK88
37,Chicano's Mexican Restaurant,Mexican Restaurant,4718 New Utrecht Ave,,40.637916564941406,-73.9948501586914,"[{'label': 'display', 'lat': 40.637916564941406, 'lng': -73.9948501586914}]",515,11219,US,Brooklyn,NY,United States,"['4718 New Utrecht Ave', 'Brooklyn, NY 11219', 'United States']",,57cbc3d7498eeafce6ce9ee3,,,Mexican Restaurant,Mexican,,0.0,,,,0.0,,Brooklyn,Borough Park,BK88
38,A-HO RESTAURANT,Asian Restaurant,6005 Fort Hamilton Pkwy,60th st,40.632774353027344,-74.00557708740234,"[{'label': 'display', 'lat': 40.632774353027344, 'lng': -74.00557708740234}]",556,11219,US,Brooklyn,NY,United States,"['6005 Fort Hamilton Pkwy (60th st)', 'Brooklyn, NY 11219', 'United States']",,4ce75508e888f04d3fc23b6b,,,Sushi Restaurant,Sushi,,0.0,,,,0.0,,Brooklyn,Borough Park,BK88
39,Fu Man Lou Restaurant,Chinese Restaurant,5405 8th Ave,,40.638560766061175,-74.00628810605694,"[{'label': 'display', 'lat': 40.63856076606117, 'lng': -74.00628810605693}, {'label': 'entrance', 'lat': 40.638633, 'lng': -74.006106}]",644,11220,US,Brooklyn,NY,United States,"['5405 8th Ave', 'Brooklyn, NY 11220', 'United States']",,4f09f06ee4b033211b36e4c2,,,Chinese Restaurant,Chinese,,0.0,,,,1.0,,Brooklyn,Sunset Park East,BK34
40,C&L Of East Ocean Restaurant,Asian Restaurant,5304 8th Ave,,40.63943,-74.00579599999998,"[{'label': 'display', 'lat': 40.63943, 'lng': -74.00579599999999}, {'label': 'entrance', 'lat': 40.639378, 'lng': -74.005711}]",671,11220,US,Brooklyn,NY,United States,"['5304 8th Ave', 'Brooklyn, NY 11220', 'United States']",,4ce79ff7e1eeb60c40389eae,,,Asian Restaurant,Asian,,0.0,,,,0.0,,Brooklyn,Sunset Park East,BK34
41,"Golden Forest Chinese Restaurant, Brooklyn Ny",Asian Restaurant,4915 8th Ave,,40.6416244506836,-74.00355529785156,"[{'label': 'display', 'lat': 40.641624450683594, 'lng': -74.00355529785156}]",761,11220,US,Brooklyn,NY,United States,"['4915 8th Ave', 'Brooklyn, NY 11220', 'United States']",,4df6c3f1e4cd50071441f187,,,Asian Restaurant,Asian,,0.0,,,,0.0,,Brooklyn,Sunset Park East,BK34
43,Dynasty Chinese Restaurant,Chinese Restaurant,147-18 Northern Blvd,,40.76519775390625,-73.81754302978516,"[{'label': 'display', 'lat': 40.76519775390625, 'lng': -73.81754302978516}]",537,11354,US,Flushing,NY,United States,"['147-18 Northern Blvd', 'Flushing, NY 11354', 'United States']",,4f32b02919836c91c7f001cc,,,Chinese Restaurant,Chinese,,2.0,1.0,,,1.0,,Queens,Murray Hill,QN51
45,146-13 Northern Blvd Korean Restaurant,Asian Restaurant,14613 Northern Blvd,,40.765380859375,-73.82027435302734,"[{'label': 'display', 'lat': 40.765380859375, 'lng': -73.82027435302734}]",565,11354,US,Flushing,NY,United States,"['14613 Northern Blvd', 'Flushing, NY 11354', 'United States']",,4e4dd8e3bd41b76bef941b48,,,Korean Restaurant,Korean,,0.0,,,,0.0,,Queens,Murray Hill,QN51
47,Bang Ga Ne Restaurant,Asian Restaurant,165-19 Northern Blvd,,40.75988404077388,-73.80049348258154,"[{'label': 'display', 'lat': 40.75988404077388, 'lng': -73.80049348258154}]",584,11358,US,Flushing,NY,United States,"['165-19 Northern Blvd', 'Flushing, NY 11358', 'United States']",,4c1eb73bb4e62d7fcebade93,,,Korean Restaurant,Korean,6.6,5.0,,,,1.0,8.0,Queens,Murray Hill,QN51
48,Ginpachi Sushi Restaurant,Asian Restaurant,33-41 Francis Lewis Blvd,,40.766375969996794,-73.78964962795081,"[{'label': 'display', 'lat': 40.76637596999679, 'lng': -73.78964962795081}]",599,11358,US,Flushing,NY,United States,"['33-41 Francis Lewis Blvd', 'Flushing, NY 11358', 'United States']",,564fd739498e0210364353cf,,,Sushi Restaurant,Sushi,7.3,11.0,,,,2.0,13.0,Queens,Bayside-Bayside Hills,QN46
50,San Soo Kap San,Asian Restaurant,17110 Northern Blvd,,40.757823597786825,-73.79544868500568,"[{'label': 'display', 'lat': 40.75782359778682, 'lng': -73.79544868500568}]",512,11358,US,Flushing,NY,United States,"['17110 Northern Blvd', 'Flushing, NY 11358', 'United States']",,4bd2147ba8b3a593fc15675f,,,Korean Restaurant,Korean,6.2,42.0,2.0,,,16.0,72.0,Queens,East Flushing,QN52
51,Bonjuk Korean Traditional Porridge Restaurant,Asian Restaurant,15226 Northern Blvd,,40.76487281750307,-73.81211102213541,"[{'label': 'display', 'lat': 40.76487281750307, 'lng': -73.8121110221354}]",526,11354,US,Flushing,NY,United States,"['15226 Northern Blvd', 'Flushing, NY 11354', 'United States']",,4ca67385b7106dcb6e3b5ea5,,,Korean Restaurant,Korean,7.3,22.0,3.0,,,6.0,28.0,Queens,Murray Hill,QN51
52,Geo Si Gi Restaurant,Asian Restaurant,152-28 Northern Blvd,,40.764865361948935,-73.81198259646034,"[{'label': 'display', 'lat': 40.764865361948935, 'lng': -73.81198259646033}]",534,11354,US,Flushing,NY,United States,"['152-28 Northern Blvd', 'Flushing, NY 11354', 'United States']",,4c7ad3dda86837048bee144d,,,Korean Restaurant,Korean,7.6,34.0,2.0,,,12.0,49.0,Queens,Murray Hill,QN51
53,Jeun Ju Korean Restaurant,Asian Restaurant,40-11 150th St,,40.763244,-73.81448499999998,"[{'label': 'display', 'lat': 40.763244, 'lng': -73.814485}]",590,11354,US,Flushing,NY,United States,"['40-11 150th St', 'Flushing, NY 11354', 'United States']",,54669f6d498e9e9b900a1353,,,Korean Restaurant,Korean,,3.0,,,,0.0,,Queens,Murray Hill,QN51
54,Korean BBQ Restaurant,Asian Restaurant,15401 Northern Blvd,,40.764754,-73.81090400000002,"[{'label': 'display', 'lat': 40.764754, 'lng': -73.810904}]",198,11354,US,Flushing,NY,United States,"['15401 Northern Blvd', 'Flushing, NY 11354', 'United States']",,4c0065eead15a5934ce08d73,,,Korean Restaurant,Korean,,0.0,3.0,,,1.0,,Queens,Murray Hill,QN51
55,You-Chon Korean Restaurant,Asian Restaurant,15603 Northern Blvd,,40.76428486180525,-73.8089456277251,"[{'label': 'display', 'lat': 40.76428486180524, 'lng': -73.8089456277251}]",365,11354,US,Flushing,NY,United States,"['15603 Northern Blvd', 'Flushing, NY 11354', 'United States']",,4b8dc17ff964a520370c33e3,,,Korean Restaurant,Korean,,0.0,2.0,,,1.0,,Queens,Murray Hill,QN51
56,Emone Korean Family Restaurant,Asian Restaurant,156-28 Northern Blvd,,40.76333926934584,-73.80914000254883,"[{'label': 'display', 'lat': 40.763339269345835, 'lng': -73.80914000254883}]",375,11354,US,Flushing,NY,United States,"['156-28 Northern Blvd', 'Flushing, NY 11354', 'United States']",,5078a6d6e4b065f1dcd66110,,,Korean Restaurant,Korean,7.0,9.0,,,,1.0,12.0,Queens,Murray Hill,QN51
57,Mekong Thai & Vietnamese Restaurant,Asian Restaurant,15632 Northern Blvd,at 157th St.,40.76326732896729,-73.80910811443499,"[{'label': 'display', 'lat': 40.76326732896729, 'lng': -73.80910811443499}, {'label': 'entrance', 'lat': 40.763127, 'lng': -73.808856}]",381,11354,US,Flushing,NY,United States,"['15632 Northern Blvd (at 157th St.)', 'Flushing, NY 11354', 'United States']",,4b3955c8f964a520da5a25e3,,,Vietnamese Restaurant,Vietnamese,5.3,35.0,1.0,,,31.0,83.0,Queens,Murray Hill,QN51
58,병천자매순대 (Byun Chung Soon Dae Restaurant) (Byun Chung Soon Dae Restaurant),Asian Restaurant,156-03 Northern Blvd,156th St,40.76423360851895,-73.80900947753331,"[{'label': 'display', 'lat': 40.76423360851895, 'lng': -73.80900947753332}]",360,11354,US,Flushing,NY,United States,"['156-03 Northern Blvd (156th St)', 'Flushing, NY 11354', 'United States']",,51c612d9498e52a02241e27b,,,Korean Restaurant,Korean,6.8,16.0,,,,4.0,23.0,Queens,Murray Hill,QN51
59,152-12 Northern Blvd Chinese Restaurant,Chinese Restaurant,15212 Northern Blvd,,40.76470184326172,-73.81248474121094,"[{'label': 'display', 'lat': 40.76470184326172, 'lng': -73.81248474121094}]",65,11354,US,Flushing,NY,United States,"['15212 Northern Blvd', 'Flushing, NY 11354', 'United States']",,4e4dd8e2bd41b76bef941b37,,,Chinese Restaurant,Chinese,,0.0,3.0,,,0.0,,Queens,Murray Hill,QN51
60,Golden Gate Chinese Restaurant,Chinese Restaurant,152-12 Northern Blvd,,40.76470184326172,-73.8124771118164,"[{'label': 'display', 'lat': 40.76470184326172, 'lng': -73.8124771118164}]",65,11354,US,Flushing,NY,United States,"['152-12 Northern Blvd', 'Flushing, NY 11354', 'United States']",,4b64d974f964a520ced42ae3,,,Chinese Restaurant,Chinese,,0.0,,,,0.0,,Queens,Murray Hill,QN51
61,Jeon Ju Restaurant,Asian Restaurant,40-11 150th St,btw Roosevelt & Barton,40.763370513916016,-73.81391143798828,"[{'label': 'display', 'lat': 40.763370513916016, 'lng': -73.81391143798828}]",151,11354,US,Flushing,NY,United States,"['40-11 150th St (btw Roosevelt & Barton)', 'Flushing, NY 11354', 'United States']",,4ccc4936ba79a1cde41a3acb,,,Korean Restaurant,Korean,,0.0,,,,0.0,,Queens,Murray Hill,QN51
63,Beef Bar Restaurant牛吧美食坊,Asian Restaurant,41-87 Bowne St,Franklin Ave,40.757371,-73.82213399999998,"[{'label': 'display', 'lat': 40.757371, 'lng': -73.822134}]",300,11355,US,Flushing,NY,United States,"['41-87 Bowne St (Franklin Ave)', 'Flushing, NY 11355', 'United States']",,5dd886f6251c1c00085ffa3e,,,Asian Restaurant,Asian,,0.0,,,,0.0,,Queens,Flushing,QN22
64,Cin Chinese Restaurant,Chinese Restaurant,41-81 Bowne St,,40.75754736342453,-73.82243269938267,"[{'label': 'display', 'lat': 40.757547363424536, 'lng': -73.82243269938267}]",313,11355,US,Flushing,NY,United States,"['41-81 Bowne St', 'Flushing, NY 11355', 'United States']",,553413b1498ee8069929f087,,,Chinese Restaurant,Chinese,,2.0,,,,2.0,,Queens,Flushing,QN22
65,mail garden restaurant,Asian Restaurant,147-32 41st Ave,,40.76150894165039,-73.81681060791016,"[{'label': 'display', 'lat': 40.76150894165039, 'lng': -73.81681060791016}]",365,11355,US,Flushing,NY,United States,"['147-32 41st Ave', 'Flushing, NY 11355', 'United States']",,533ca3af498e4e5727380761,,,Korean Restaurant,Korean,,1.0,,,,0.0,,Queens,Murray Hill,QN51
66,Jin Cheng Restaurant,Chinese Restaurant,142-38 Roosevelt Ave,btwn Union & Bowne St,40.760771470764254,-73.82525593687505,"[{'label': 'display', 'lat': 40.76077147076426, 'lng': -73.82525593687504}]",573,11354,US,Flushing,NY,United States,"['142-38 Roosevelt Ave (btwn Union & Bowne St)', 'Flushing, NY 11354', 'United States']",,4e236e43a80968cf3e545a63,,,Chinese Restaurant,Chinese,5.7,14.0,,,,4.0,26.0,Queens,Flushing,QN22
67,Sunny Restaurant 鴻意順,Chinese Restaurant,2525 Parsons Blvd,,40.776004,-73.823592,"[{'label': 'display', 'lat': 40.776004, 'lng': -73.823592}]",290,11357,US,New York,NY,United States,"['2525 Parsons Blvd', 'New York, NY 11357', 'United States']",,593dcf83029a55375e0a8d54,,,Chinese Restaurant,Chinese,,0.0,,,,0.0,,Queens,Murray Hill,QN51
68,Jia Fu Lou Chinese Restaurant,Chinese Restaurant,25-25 Parsons Blvd,,40.7759177684784,-73.82391408333334,"[{'label': 'display', 'lat': 40.775917768478394, 'lng': -73.82391408333334}]",318,11354,US,Flushing,NY,United States,"['25-25 Parsons Blvd', 'Flushing, NY 11354', 'United States']",,4d7bca2586cfa143de12bca0,,,Chinese Restaurant,Chinese,,0.0,,,,1.0,,Queens,Murray Hill,QN51
69,Yan Jing Chinese and Japanese Restaurant,Chinese Restaurant,2525 Parsons Blvd,,40.77598190307617,-73.82374572753906,"[{'label': 'display', 'lat': 40.77598190307617, 'lng': -73.82374572753906}]",302,11354,US,Flushing,NY,United States,"['2525 Parsons Blvd', 'Flushing, NY 11354', 'United States']",,4f3269c819836c91c7d56492,,,Food,Food,,0.0,,,,0.0,,Queens,Murray Hill,QN51
70,Samwongahk Restaurant,Asian Restaurant,144-20,Nothern blvd,40.776612998634455,-73.82697030672941,"[{'label': 'display', 'lat': 40.776612998634455, 'lng': -73.82697030672941}]",526,,US,Flushing,NY,United States,"['144-20 (Nothern blvd)', 'Flushing, NY', 'United States']",,4b64738bf964a52033b42ae3,,,Korean Restaurant,Korean,,2.0,,,,1.0,,Queens,Flushing,QN22
71,Tong Sam Gyup Goo Yi Restaurant,Asian Restaurant,16223 Depot Rd,,40.76205897543733,-73.80312288376675,"[{'label': 'display', 'lat': 40.76205897543733, 'lng': -73.80312288376675}]",236,11358,US,Flushing,NY,United States,"['16223 Depot Rd', 'Flushing, NY 11358', 'United States']",,4bd3578041b9ef3b05f0ffe5,,,Korean Restaurant,Korean,8.2,38.0,,,,11.0,49.0,Queens,Murray Hill,QN51
72,160-26 Northern Blvd Korean Restaurant,Asian Restaurant,16026 Northern Blvd,,40.76246643066406,-73.80473327636719,"[{'label': 'display', 'lat': 40.76246643066406, 'lng': -73.80473327636719}]",147,11358,US,Flushing,NY,United States,"['16026 Northern Blvd', 'Flushing, NY 11358', 'United States']",,4e4deb17bd41b76bef955339,,,Korean Restaurant,Korean,,0.0,,,,0.0,,Queens,Murray Hill,QN51
73,Hunan House Chinese Restaurant,Chinese Restaurant,2930 Union St,,40.77151107788086,-73.82689666748047,"[{'label': 'display', 'lat': 40.77151107788086, 'lng': -73.82689666748047}]",575,11354,US,Flushing,NY,United States,"['2930 Union St', 'Flushing, NY 11354', 'United States']",,4f32053019833175d60a5f8e,,,Chinese Restaurant,Chinese,,0.0,,,,0.0,,Queens,Flushing,QN22
74,Asho Japanese Restaurant,Asian Restaurant,2932 Union St,,40.7715072631836,-73.82678985595703,"[{'label': 'display', 'lat': 40.771507263183594, 'lng': -73.82678985595703}]",570,11354,US,Flushing,NY,United States,"['2932 Union St', 'Flushing, NY 11354', 'United States']",,4f433d9919834bc91f557c12,,,Japanese Restaurant,Japanese,,0.0,,,,0.0,,Queens,Flushing,QN22
75,Eastern Taste Restaurant,Chinese Restaurant,29-30  A Union St,,40.77143071666666,-73.826723,"[{'label': 'display', 'lat': 40.771430716666664, 'lng': -73.826723}]",573,11354,US,Flushing,NY,United States,"['29-30  A Union St', 'Flushing, NY 11354', 'United States']",,4cd17c82de0f6dcb16407163,,,Chinese Restaurant,Chinese,,0.0,,,,1.0,,Queens,Flushing,QN22
77,Polanco's Restaurant,European Restaurant,3313 108th St,,40.75741674835218,-73.86107369503202,"[{'label': 'display', 'lat': 40.75741674835218, 'lng': -73.86107369503202}]",541,11368,US,Corona,NY,United States,"['3313 108th St', 'Corona, NY 11368', 'United States']",,4daa0d7e0cb6a89c6265a89f,,,Spanish Restaurant,Spanish,,4.0,2.0,,,2.0,,Queens,North Corona,QN26
78,Lung Sing Chinese Restaurant,Chinese Restaurant,10307 Northern Blvd,,40.75790786743164,-73.86537170410156,"[{'label': 'display', 'lat': 40.75790786743164, 'lng': -73.86537170410156}]",213,11368,US,Corona,NY,United States,"['10307 Northern Blvd', 'Corona, NY 11368', 'United States']",,4e4dcd0ebd41b76bef93526f,,,Chinese Restaurant,Chinese,,0.0,,,,0.0,,Queens,East Elmhurst,QN27
79,Hing Hing Chinese Restaurant,Chinese Restaurant,9915 Northern Blvd,,40.75756072998047,-73.86882781982422,"[{'label': 'display', 'lat': 40.75756072998047, 'lng': -73.86882781982422}]",261,11368,US,Corona,NY,United States,"['9915 Northern Blvd', 'Corona, NY 11368', 'United States']",,4e4dcd0ebd41b76bef935264,,,Chinese Restaurant,Chinese,,0.0,1.0,,,0.0,,Queens,East Elmhurst,QN27
80,El Patio Restaurant,Latin American Restaurant,10014 Northern Blvd,,40.75710678100586,-73.8678207397461,"[{'label': 'display', 'lat': 40.75710678100586, 'lng': -73.8678207397461}]",268,11368,US,Corona,NY,United States,"['10014 Northern Blvd', 'Corona, NY 11368', 'United States']",,4e4dcd19bd41b76bef93531c,,,Latin American Restaurant,Latin American,,0.0,2.0,,,0.0,,Queens,North Corona,QN26
81,El TRI MX Restaurant & Bar,Mexican Restaurant,99-12 Northern Blvd,,40.757015,-73.86895,"[{'label': 'display', 'lat': 40.757015, 'lng': -73.86895}]",317,11368,US,Corona,NY,United States,"['99-12 Northern Blvd', 'Corona, NY 11368', 'United States']",,5d15b01f6d54f8002384e584,,,Mexican Restaurant,Mexican,,0.0,,,,0.0,,Queens,North Corona,QN26
84,La Roja de Todos Restaurant & Bakery,Restaurant,10802 Northern Blvd,,40.757557,-73.860763,"[{'label': 'display', 'lat': 40.757557, 'lng': -73.860763}]",207,11368,US,Corona,NY,United States,"['10802 Northern Blvd', 'Corona, NY 11368', 'United States']",,5a88edbda87921721fa5dd79,,,Restaurant,Restaurant,,0.0,,,,0.0,,Queens,North Corona,QN26
85,Guaro Restaurant,Latin American Restaurant,107-01 37th Ave,,40.75416946411133,-73.86107635498047,"[{'label': 'display', 'lat': 40.75416946411133, 'lng': -73.86107635498047}]",547,11368,US,Corona,NY,United States,"['107-01 37th Ave', 'Corona, NY 11368', 'United States']",,5c8d40e31fa763002c5ce1c7,,,Latin American Restaurant,Latin American,,0.0,,,,0.0,,Queens,North Corona,QN26
86,Number One Chinese,Asian Restaurant,10614 Northern Blvd,,40.75750732421875,-73.86226654052734,"[{'label': 'display', 'lat': 40.75750732421875, 'lng': -73.86226654052734}]",314,11368,US,Corona,NY,United States,"['10614 Northern Blvd', 'Corona, NY 11368', 'United States']",,4dd4714522716ea3ce5ebed4,,,Asian Restaurant,Asian,,0.0,1.0,,,0.0,,Queens,North Corona,QN26
88,Steinway Restaurant,American Restaurant,,,40.76914663276436,-73.86714368579409,"[{'label': 'display', 'lat': 40.76914663276436, 'lng': -73.86714368579409}]",391,11369,US,East Elmhurst,NY,United States,"['East Elmhurst, NY 11369', 'United States']",,50c6486be4b09f06838b13d0,,,American Restaurant,American,,0.0,,,,1.0,,Queens,East Elmhurst,QN27
89,Altamayo Peruvian Restaurant,Latin American Restaurant,,,40.77426921076539,-73.87003217749043,"[{'label': 'display', 'lat': 40.77426921076539, 'lng': -73.87003217749044}]",522,11356,US,College Point,NY,United States,"['College Point, NY 11356', 'United States']",,4f36ea03e4b0156e86f7acb4,,,Latin American Restaurant,Latin American,,0.0,,,,0.0,,Queens,Airport,QN98
91,Lucky Queens Chinese Restaurant,Asian Restaurant,100-11,Astoria Blvd,40.762497828069506,-73.8734202149641,"[{'label': 'display', 'lat': 40.762497828069506, 'lng': -73.87342021496409}]",444,,US,New York,NY,United States,"['100-11 (Astoria Blvd)', 'New York, NY', 'United States']",,4d129b0affa36ea8b538fada,,,Asian Restaurant,Asian,,1.0,,,,0.0,,Queens,East Elmhurst,QN27
92,Gilda's Peruvian Restaurant,Latin American Restaurant,91-15 31st Ave,,40.76015816763304,-73.87699194702981,"[{'label': 'display', 'lat': 40.76015816763305, 'lng': -73.87699194702981}]",523,11369,US,East Elmhurst,NY,United States,"['91-15 31st Ave', 'East Elmhurst, NY 11369', 'United States']",,4cdc7bccd4ecb1f78ab27f48,,,Peruvian Restaurant,Peruvian,,4.0,,,,1.0,,Queens,Jackson Heights,QN28
93,Caribbean Flavor & American Restaurant,Caribbean Restaurant,9811 Astoria Blvd,,40.762508392333984,-73.87091827392578,"[{'label': 'display', 'lat': 40.762508392333984, 'lng': -73.87091827392578}]",81,11369,US,East Elmhurst,NY,United States,"['9811 Astoria Blvd', 'East Elmhurst, NY 11369', 'United States']",,4e4dcd1abd41b76bef935332,,,Caribbean Restaurant,Caribbean,,0.0,,,,0.0,,Queens,East Elmhurst,QN27
95,Ming Star Chinese Restaurant,Chinese Restaurant,8916 Northern Blvd,,40.75630974525511,-73.87824429223016,"[{'label': 'display', 'lat': 40.75630974525511, 'lng': -73.87824429223016}]",546,11372,US,Jackson Heights,NY,United States,"['8916 Northern Blvd', 'Jackson Heights, NY 11372', 'United States']",,4ccf49671ac7a1cd9cc51292,,,Chinese Restaurant,Chinese,,1.0,1.0,,,1.0,,Queens,Jackson Heights,QN28
96,Las Juanas Restaurant Asadero,Restaurant,9515 Northern Blvd,,40.7570583,-73.8724773,"[{'label': 'display', 'lat': 40.7570583, 'lng': -73.8724773}]",139,11372,US,Jackson Heights,NY,United States,"['9515 Northern Blvd', 'Jackson Heights, NY 11372', 'United States']",,5c8b51adbcbf7a002cf21bda,,,Restaurant,Restaurant,,0.0,,,,0.0,,Queens,East Elmhurst,QN27
97,LA Cazuela Restaurant,Restaurant,618 Northern Blvd,,40.756943,-73.872219,"[{'label': 'display', 'lat': 40.756943, 'lng': -73.872219}]",151,11368,US,Corona,NY,United States,"['618 Northern Blvd', 'Corona, NY 11368', 'United States']",,4e4dcd12bd41b76bef9352b1,,,Restaurant,Restaurant,,0.0,,,,0.0,,Queens,North Corona,QN26
98,La Nueva Colombia Restaurant,Latin American Restaurant,91-07 31st Ave,,40.76019358755747,-73.87735272607691,"[{'label': 'display', 'lat': 40.760193587557474, 'lng': -73.8773527260769}]",474,11369,US,East Elmhurst,NY,United States,"['91-07 31st Ave', 'East Elmhurst, NY 11369', 'United States']",,4baf8346f964a52006063ce3,,,Colombian Restaurant,Colombian,,2.0,2.0,,,3.0,,Queens,Jackson Heights,QN28
99,Safari Carribean American Restaurant,Caribbean Restaurant,196 23 Jamaica Avenue,196ST,40.713524,-73.76308,"[{'label': 'display', 'lat': 40.713524, 'lng': -73.76308}]",331,11423,US,Jamaica,NY,United States,"['196 23 Jamaica Avenue (196ST)', 'Jamaica, NY 11423', 'United States']",,572539e2498e0bb2afa6c333,,,Caribbean Restaurant,Caribbean,,0.0,,,,0.0,,Queens,Hollis,QN07
100,El Palo Bar & Restaurant,European Restaurant,,,40.71365737915039,-73.76290130615234,"[{'label': 'display', 'lat': 40.71365737915039, 'lng': -73.76290130615234}]",345,11423,US,,New York,United States,"['NY 11423', 'United States']",,4ee387a1b634710b8a08aef6,,,Spanish Restaurant,Spanish,,0.0,,,,0.0,,Queens,Hollis,QN07
101,New Ho Wah,Chinese Restaurant,19519 Jamaica Ave,,40.71234422072162,-73.7644111194512,"[{'label': 'display', 'lat': 40.71234422072162, 'lng': -73.7644111194512}]",247,11423,US,Hollis,NY,United States,"['19519 Jamaica Ave', 'Hollis, NY 11423', 'United States']",,4e4dfb24bd4101d0d79f8cf5,,,Chinese Restaurant,Chinese,,0.0,1.0,,,0.0,,Queens,Hollis,QN07
102,Hong Kong Restaurant,Chinese Restaurant,19012 Hillside Ave,,40.71589383971914,-73.77140402347206,"[{'label': 'display', 'lat': 40.71589383971914, 'lng': -73.77140402347206}]",262,11423,US,Hollis,NY,United States,"['19012 Hillside Ave', 'Hollis, NY 11423', 'United States']",,4b8601a1f964a5203f7d31e3,,,Chinese Restaurant,Chinese,,2.0,1.0,,,0.0,,Queens,Jamaica Estates-Holliswood,QN06
103,La Estrella Restaurant,American Restaurant,18905 Jamaica Ave,,40.71175003051758,-73.77002716064453,"[{'label': 'display', 'lat': 40.71175003051758, 'lng': -73.77002716064453}]",261,11423,US,Jamaica,NY,United States,"['18905 Jamaica Ave', 'Jamaica, NY 11423', 'United States']",,4f32039319833175d609c6bb,,,American Restaurant,American,,0.0,,,,0.0,,Queens,Jamaica,QN61
104,Xin Xing Chinese Restaurant,Chinese Restaurant,188-13 Jamaica Ave,188th Street,40.71131896972656,-73.77056121826172,"[{'label': 'display', 'lat': 40.71131896972656, 'lng': -73.77056121826172}]",319,11423,US,Hollis,NY,United States,"['188-13 Jamaica Ave (188th Street)', 'Hollis, NY 11423', 'United States']",,550633de498e138fa83fbbb5,,,Chinese Restaurant,Chinese,,0.0,,,,0.0,,Queens,Jamaica,QN61
105,Friends Restaurant,Caribbean Restaurant,187-50 Jamaica Ave,,40.710584,-73.770646,"[{'label': 'display', 'lat': 40.710584, 'lng': -73.770646}]",400,11423,US,Jamaica,NY,United States,"['187-50 Jamaica Ave', 'Jamaica, NY 11423', 'United States']",,4eb5c51129c212fb6c905d01,,,Caribbean Restaurant,Caribbean,,1.0,,,,2.0,,Queens,Hollis,QN07
106,Halal Chinese Kitchen,Chinese Restaurant,18714 Hillside Ave,,40.71456909179688,-73.77460479736328,"[{'label': 'display', 'lat': 40.714569091796875, 'lng': -73.77460479736328}]",439,11432,US,Jamaica,NY,United States,"['18714 Hillside Ave', 'Jamaica, NY 11432', 'United States']",,4c20ec904889a5932f262720,,,Chinese Restaurant,Chinese,,3.0,,,,1.0,,Queens,Jamaica,QN61
107,Kay Manmanm Restaurant and Fritaille,Caribbean Restaurant,211-47 Jamaica Ave,,40.715728759765625,-73.74783325195312,"[{'label': 'display', 'lat': 40.715728759765625, 'lng': -73.74783325195312}]",613,11428,US,Queens Village,NY,United States,"['211-47 Jamaica Ave', 'Queens Village, NY 11428', 'United States']",,508c5256e4b07c9fb11bb101,,,Caribbean Restaurant,Caribbean,6.7,5.0,,,,2.0,8.0,Queens,Queens Village,QN34
108,Labadee Manoir Restaurant,Caribbean Restaurant,"207-13 Jamaica Ave, Queens, NY 11428",,40.7144889831543,-73.75273132324219,"[{'label': 'display', 'lat': 40.7144889831543, 'lng': -73.75273132324219}]",182,11428,US,Queens,NY,United States,"['207-13 Jamaica Ave, Queens, NY 11428', 'Queens, NY 11428', 'United States']",,4ef59c0129c2683187eda437,,,Caribbean Restaurant,Caribbean,,1.0,,,,1.0,,Queens,Queens Village,QN34
109,La Badee Restaurant,Restaurant,,,40.714288,-73.752527,"[{'label': 'display', 'lat': 40.714288, 'lng': -73.752527}]",199,11428,US,,New York,United States,"['NY 11428', 'United States']",,4dd1d0e1ae60fb3f53b3b852,,,Restaurant,Restaurant,,4.0,,,,1.0,,Queens,Queens Village,QN34
110,Eastern Restaurant,Chinese Restaurant,208-9 Jamaica Ave,Jamaica btwn 208th & 209th,40.71472930908203,-73.75199890136719,"[{'label': 'display', 'lat': 40.71472930908203, 'lng': -73.75199890136719}]",246,11428,US,Queens Village,NY,United States,"['208-9 Jamaica Ave (Jamaica btwn 208th & 209th)', 'Queens Village, NY 11428', 'United States']",,4e24e74dae6035bd16f12c08,,,Chinese Restaurant,Chinese,,0.0,1.0,,,1.0,,Queens,Queens Village,QN34
111,Bon appetit Restaurant,Caribbean Restaurant,21145 Jamaica Ave,,40.715722,-73.74802700000002,"[{'label': 'display', 'lat': 40.715722, 'lng': -73.748027}]",597,11428,US,Queens,NY,United States,"['21145 Jamaica Ave', 'Queens, NY 11428', 'United States']",,521f939811d2b714d7f2c19c,,,Caribbean Restaurant,Caribbean,,0.0,,,,0.0,,Queens,Queens Village,QN34
112,Dieu Si Bon Restaurant,Caribbean Restaurant,211-47 Jamaica Ave,,40.715728759765625,-73.74783325195312,"[{'label': 'display', 'lat': 40.715728759765625, 'lng': -73.74783325195312}]",613,11428,US,Queens Village,NY,United States,"['211-47 Jamaica Ave', 'Queens Village, NY 11428', 'United States']",,5101dcdfe4b0cd77ab251d04,,,Caribbean Restaurant,Caribbean,,0.0,,,,1.0,,Queens,Queens Village,QN34
113,Elena's 43,Latin American Restaurant,8948 Francis Lewis Blvd,90th ave,40.71839156766392,-73.75760730278846,"[{'label': 'display', 'lat': 40.71839156766392, 'lng': -73.75760730278846}]",500,11427,US,Hollis,NY,United States,"['8948 Francis Lewis Blvd (90th ave)', 'Hollis, NY 11427', 'United States']",,4bd39f8dcaff9521526fd5f0,,,Latin American Restaurant,Latin American,7.4,26.0,2.0,,,22.0,50.0,Queens,Hollis,QN07
114,Seafish Market Seafood Restaurant,Seafood Restaurant,205-02 Hillside Ave,,40.72072971692421,-73.76019350644827,"[{'label': 'display', 'lat': 40.72072971692421, 'lng': -73.76019350644826}]",309,11423,US,Hollis,NY,United States,"['205-02 Hillside Ave', 'Hollis, NY 11423', 'United States']",,4e433d64fa76eeb2dab5b4be,,,Seafood Restaurant,Seafood,,3.0,,,,2.0,,Queens,Jamaica Estates-Holliswood,QN06
115,Rajdhani Indian Restaurant,Indian Restaurant,206-12 Hillside Ave,,40.721148450862906,-73.75923501183439,"[{'label': 'display', 'lat': 40.72114845086291, 'lng': -73.75923501183439}]",398,11427,US,Queens Village,NY,United States,"['206-12 Hillside Ave', 'Queens Village, NY 11427', 'United States']",,4f580c1be4b0bdfd0e7e8102,,,Indian Restaurant,Indian,8.2,13.0,2.0,,,6.0,19.0,Queens,Jamaica Estates-Holliswood,QN06
117,Silver Spoon Restaurant,Caribbean Restaurant,207-12,Hollis Avenue,40.7076184133555,-73.74970772744868,"[{'label': 'display', 'lat': 40.7076184133555, 'lng': -73.74970772744867}]",442,11429,US,Saint Albans,NY,United States,"['207-12 (Hollis Avenue)', 'Saint Albans, NY 11429', 'United States']",,4bd19820caff9521c9e1d0f0,,,Caribbean Restaurant,Caribbean,,1.0,,,,0.0,,Queens,Queens Village,QN34
118,Kween Creole Restaurant,Latin American Restaurant,19930 Hollis Ave,,40.7059211730957,-73.75749969482422,"[{'label': 'display', 'lat': 40.7059211730957, 'lng': -73.75749969482422}]",378,11412,US,Saint Albans,NY,United States,"['19930 Hollis Ave', 'Saint Albans, NY 11412', 'United States']",,4f324aa419836c91c7c942c7,,,Cajun / Creole Restaurant,Cajun / Creole,,0.0,,,,0.0,,Queens,Hollis,QN07
119,Romanoff Restaurant,Restaurant,2670 Coney Island Ave,Avenue X,40.59145728949263,-73.9607224041772,"[{'label': 'display', 'lat': 40.59145728949263, 'lng': -73.9607224041772}]",248,11235,US,Brooklyn,NY,United States,"['2670 Coney Island Ave (Avenue X)', 'Brooklyn, NY 11235', 'United States']",,51f2d2fe454a19f5f5cb61d9,,,Restaurant,Restaurant,7.7,13.0,,,,4.0,20.0,Brooklyn,Brighton Beach,BK19
120,Circles Restaurant,American Restaurant,2801 Coney Island Ave,,40.5882453918457,-73.9600601196289,"[{'label': 'display', 'lat': 40.5882453918457, 'lng': -73.9600601196289}]",145,11235,US,Brooklyn,NY,United States,"['2801 Coney Island Ave', 'Brooklyn, NY 11235', 'United States']",,4cd5cf4da42b236a6d84f208,,,American Restaurant,American,,0.0,2.0,,,0.0,,Brooklyn,Homecrest,BK25
124,famous restaurant Chinese food,Chinese Restaurant,,,40.59050041228839,-73.97060884935998,"[{'label': 'display', 'lat': 40.590500412288385, 'lng': -73.97060884935999}]",356,,US,Brooklyn,NY,United States,"['Brooklyn, NY', 'United States']",,53c71249498ead62b8d04305,,,Chinese Restaurant,Chinese,,0.0,,,,0.0,,Brooklyn,Homecrest,BK25
126,Las Banderas Grocery & Restaurant,Mexican Restaurant,1641 McDonald Ave,,40.61299139542104,-73.97362947463989,"[{'label': 'display', 'lat': 40.61299139542103, 'lng': -73.97362947463989}, {'label': 'entrance', 'lat': 40.61285, 'lng': -73.973585}]",331,11230,US,Brooklyn,NY,United States,"['1641 McDonald Ave', 'Brooklyn, NY 11230', 'United States']",,4fd65f18771670eb02ea551f,,,Mexican Restaurant,Mexican,,0.0,,,,2.0,,Brooklyn,Ocean Parkway South,BK46
127,El Penacho Restaurant,Mexican Restaurant,374 Avenue P,,40.608505,-73.973652,"[{'label': 'display', 'lat': 40.608505, 'lng': -73.973652}, {'label': 'entrance', 'lat': 40.608601, 'lng': -73.973676}]",408,11220,US,Brooklyn,NY,United States,"['374 Avenue P', 'Brooklyn, NY 11220', 'United States']",,502050c1e4b0ecc9ee91b6cc,,,Mexican Restaurant,Mexican,,1.0,,,,0.0,,Brooklyn,Bensonhurst East,BK29
129,Ming Hing Kitchen,Chinese Restaurant,380 Avenue P,,40.608519,-73.973513,"[{'label': 'display', 'lat': 40.608519, 'lng': -73.973513}, {'label': 'entrance', 'lat': 40.608616, 'lng': -73.973536}]",399,11204,US,Brooklyn,NY,United States,"['380 Avenue P', 'Brooklyn, NY 11204', 'United States']",,4b4bb2eef964a52082a426e3,,,Chinese Restaurant,Chinese,,0.0,,,,1.0,,Brooklyn,Bensonhurst East,BK29
130,Taci's Beyti Restaurant,European Restaurant,1953 Coney Island Ave,at Avenue P,40.60960801100409,-73.96211811405868,"[{'label': 'display', 'lat': 40.60960801100409, 'lng': -73.96211811405868}, {'label': 'entrance', 'lat': 40.609512, 'lng': -73.962099}]",181,11223,US,Brooklyn,NY,United States,"['1953 Coney Island Ave (at Avenue P)', 'Brooklyn, NY 11223', 'United States']",,4a060d32f964a520b1721fe3,,,Turkish Restaurant,Turkish,8.7,249.0,2.0,,,67.0,323.0,Brooklyn,Homecrest,BK25
132,Turkish Cafe & Restaurant,European Restaurant,1618 E 16th St,at Ave P,40.60986847030408,-73.9575335338384,"[{'label': 'display', 'lat': 40.60986847030408, 'lng': -73.95753353383841}, {'label': 'entrance', 'lat': 40.609955, 'lng': -73.957673}]",539,11229,US,Brooklyn,NY,United States,"['1618 E 16th St (at Ave P)', 'Brooklyn, NY 11229', 'United States']",,4c0eb0e0d64c0f47749a285d,,,Turkish Restaurant,Turkish,,3.0,,,,2.0,,Brooklyn,Madison,BK44
136,Mitoushi Japanese Restaurant,Asian Restaurant,1221 Quentin Rd,at E 13th St.,40.60801305178817,-73.96022296982271,"[{'label': 'display', 'lat': 40.60801305178819, 'lng': -73.9602229698227}]",292,11229,US,Brooklyn,NY,United States,"['1221 Quentin Rd (at E 13th St.)', 'Brooklyn, NY 11229', 'United States']",,49de749ff964a52056601fe3,,,Sushi Restaurant,Sushi,6.7,4.0,,,,5.0,9.0,Brooklyn,Homecrest,BK25
137,Wing Hing Seafood Restaurant,Chinese Restaurant,1217 Avenue U,Homecrest Ave.,40.59850944116727,-73.95957022162729,"[{'label': 'display', 'lat': 40.59850944116727, 'lng': -73.95957022162729}, {'label': 'entrance', 'lat': 40.598596, 'lng': -73.959559}]",480,11229,US,Brooklyn,NY,United States,"['1217 Avenue U (Homecrest Ave.)', 'Brooklyn, NY 11229', 'United States']",,4d28b924ebacb1f72efbf34f,,,Chinese Restaurant,Chinese,7.0,25.0,2.0,,,15.0,47.0,Brooklyn,Homecrest,BK25
138,Season Restaurant,Chinese Restaurant,1321 Avenue U,,40.598781014171685,-73.95746143510321,"[{'label': 'display', 'lat': 40.598781014171685, 'lng': -73.9574614351032}]",552,11229,US,Brooklyn,NY,United States,"['1321 Avenue U', 'Brooklyn, NY 11229', 'United States']",,514645bae4b0238f38bcdbac,,,Chinese Restaurant,Chinese,5.6,8.0,,,,3.0,19.0,Brooklyn,Homecrest,BK25
139,"Golden ""Z"" Restaurant",Chinese Restaurant,1410 Avenue U,btwn E 16th & E 17th St.,40.59875836637706,-73.9570096033757,"[{'label': 'display', 'lat': 40.59875836637706, 'lng': -73.9570096033757}, {'label': 'entrance', 'lat': 40.598657, 'lng': -73.956952}]",580,11229,US,Brooklyn,NY,United States,"['1410 Avenue U (btwn E 16th & E 17th St.)', 'Brooklyn, NY 11229', 'United States']",,4b46743ff964a520892126e3,,,Chinese Restaurant,Chinese,7.4,9.0,,,,6.0,16.0,Brooklyn,Madison,BK44
140,New Star Seafood Restaurant,Asian Restaurant,1217-1221 Avenue U,,40.598542,-73.959521,"[{'label': 'display', 'lat': 40.598542, 'lng': -73.959521}]",478,11229,US,Brooklyn,NY,United States,"['1217-1221 Avenue U', 'Brooklyn, NY 11229', 'United States']",,4c15195cb7b9c9282458ac37,,,Asian Restaurant,Asian,,1.0,2.0,,,0.0,,Brooklyn,Homecrest,BK25
141,At Kazimir Restaurant,European Restaurant,2402 Coney Island Ave,at Avenue U,40.59811993152658,-73.9612130329863,"[{'label': 'display', 'lat': 40.598119931526575, 'lng': -73.9612130329863}]",486,11223,US,Brooklyn,NY,United States,"['2402 Coney Island Ave (at Avenue U)', 'Brooklyn, NY 11223', 'United States']",,4ac7edf4f964a520a3ba20e3,,,Eastern European Restaurant,Eastern European,,1.0,2.0,,,0.0,,Brooklyn,Homecrest,BK25
143,Wing Hing Seafood Restaurant,Asian Restaurant,1217 Avenue U,Home rest Avr,40.598717,-73.959582,"[{'label': 'display', 'lat': 40.598717, 'lng': -73.959582}]",458,11229,US,Brooklyn,NY,United States,"['1217 Avenue U (Home rest Avr)', 'Brooklyn, NY 11229', 'United States']",,540b307f498e187680c8bcaa,,,Cantonese Restaurant,Cantonese,,0.0,,,,0.0,,Brooklyn,Homecrest,BK25
145,Vitale's Italian Restaurant,Italian Restaurant,1949 McDonald Ave,,40.605173,-73.971936,"[{'label': 'display', 'lat': 40.605173, 'lng': -73.971936}]",543,11223,US,Brooklyn,NY,United States,"['1949 McDonald Ave', 'Brooklyn, NY 11223', 'United States']",,4f32b1e919836c91c7f0a513,,,Italian Restaurant,Italian,,2.0,,,,0.0,,Brooklyn,Homecrest,BK25
146,Alice's  Kosher Restaurant,Italian Restaurant,434 Avenue U,,40.597331,-73.968019,"[{'label': 'display', 'lat': 40.597331, 'lng': -73.968019}]",374,11223,US,Brooklyn,NY,United States,"['434 Avenue U', 'Brooklyn, NY 11223', 'United States']",,51c106d3498e8d96f29f6340,,,Italian Restaurant,Italian,,1.0,,,,0.0,,Brooklyn,Homecrest,BK25
147,Fontana Di Trevi Restaurant,Restaurant,712 Avenue U,bet E7st & E8st,40.597809999999996,-73.963604,"[{'label': 'display', 'lat': 40.597809999999996, 'lng': -73.963604}, {'label': 'entrance', 'lat': 40.597923, 'lng': -73.963625}]",355,11223,US,Brooklyn,NY,United States,"['712 Avenue U (bet E7st & E8st)', 'Brooklyn, NY 11223', 'United States']",,4ca7c57cd971b1f7b3cf0de1,,,Restaurant,Restaurant,,1.0,,,,2.0,,Brooklyn,Homecrest,BK25
148,Fuji Hana,Asian Restaurant,512 Avenue U,,40.59761662440589,-73.96647413020186,"[{'label': 'display', 'lat': 40.59761662440588, 'lng': -73.96647413020186}]",333,11223,US,Brooklyn,NY,United States,"['512 Avenue U', 'Brooklyn, NY 11223', 'United States']",,4d6adae62ea9b1f7cb22ca28,,,Japanese Restaurant,Japanese,7.7,10.0,,,,4.0,14.0,Brooklyn,Homecrest,BK25
149,Annie Chan's Japanese Cuisine Restaurant,Asian Restaurant,19011 Union Tpke,,40.72998722515771,-73.77895256853836,"[{'label': 'display', 'lat': 40.72998722515771, 'lng': -73.77895256853836}]",402,11366,US,Fresh Meadows,NY,United States,"['19011 Union Tpke', 'Fresh Meadows, NY 11366', 'United States']",,4e4dc0aabd41b76bef92944c,,,Japanese Restaurant,Japanese,,1.0,2.0,,,1.0,,Queens,Fresh Meadows-Utopia,QN41
150,China Gourmet Chinese Restaurant,Chinese Restaurant,18503 Union Tpke,,40.728509733466026,-73.78276729741239,"[{'label': 'display', 'lat': 40.72850973346603, 'lng': -73.78276729741239}]",430,11366,US,Fresh Meadows,NY,United States,"['18503 Union Tpke', 'Fresh Meadows, NY 11366', 'United States']",,4c26a997c11dc9b6a8712924,,,Chinese Restaurant,Chinese,,1.0,1.0,,,0.0,,Queens,Jamaica Estates-Holliswood,QN06
152,Peking Restaurant Fresh Mdws,Chinese Restaurant,6978 188th St,,40.734198,-73.78353,"[{'label': 'display', 'lat': 40.734198, 'lng': -73.78353}]",219,11365,US,Fresh Meadows,NY,United States,"['6978 188th St', 'Fresh Meadows, NY 11365', 'United States']",,4f3231b919836c91c7bf6a2d,,,Chinese Restaurant,Chinese,,0.0,,,,0.0,,Queens,Fresh Meadows-Utopia,QN41
154,Chu Jiang Chinese Restaurant,Chinese Restaurant,18524 Union Tpke,,40.72849655151367,-73.78268432617188,"[{'label': 'display', 'lat': 40.72849655151367, 'lng': -73.78268432617188}]",431,11366,US,Fresh Meadows,NY,United States,"['18524 Union Tpke', 'Fresh Meadows, NY 11366', 'United States']",,4f43522419834bc91f55f370,,,Chinese Restaurant,Chinese,,0.0,,,,0.0,,Queens,Jamaica Estates-Holliswood,QN06
157,Taipan Fusion Restaurant and Hookah Lounge,Chinese Restaurant,18422 Horace Harding Expy,185th St,40.73978100432147,-73.7893131002287,"[{'label': 'display', 'lat': 40.73978100432147, 'lng': -73.78931310022868}]",485,11365,US,Fresh Meadows,NY,United States,"['18422 Horace Harding Expy (185th St)', 'Fresh Meadows, NY 11365', 'United States']",,4c563940b7a31b8d6cb44dda,,,Chinese Restaurant,Chinese,5.9,5.0,,,,8.0,13.0,Queens,Fresh Meadows-Utopia,QN41
158,Jade Fountain Chinese Cuisine,Chinese Restaurant,185-20 Horace Harding Expy,at Horace Harding Exp,40.74005442725765,-73.78861172375206,"[{'label': 'display', 'lat': 40.74005442725766, 'lng': -73.78861172375207}]",458,11365,US,Fresh Meadows,NY,United States,"['185-20 Horace Harding Expy (at Horace Harding Exp)', 'Fresh Meadows, NY 11365', 'United States']",,4b58fd3ff964a520257728e3,,,Chinese Restaurant,Chinese,,1.0,,,,1.0,,Queens,Fresh Meadows-Utopia,QN41
159,Tokyo Steak,Asian Restaurant,14945 14th Ave,at Horace Harding Exp,40.739737631019956,-73.7895053540092,"[{'label': 'display', 'lat': 40.739737631019956, 'lng': -73.78950535400918}]",495,11357,US,Whitestone,NY,United States,"['14945 14th Ave (at Horace Harding Exp)', 'Whitestone, NY 11357', 'United States']",,4ae3a4d6f964a5209d9721e3,,,Asian Restaurant,Asian,,0.0,,,,5.0,,Queens,Fresh Meadows-Utopia,QN41
160,Seven Stars Chinese Restaurant,Chinese Restaurant,18026 Union Tpke,,40.72698593139648,-73.78726196289062,"[{'label': 'display', 'lat': 40.726985931396484, 'lng': -73.78726196289062}]",380,11366,US,Fresh Meadows,NY,United States,"['18026 Union Tpke', 'Fresh Meadows, NY 11366', 'United States']",,4b61d128f964a520d1242ae3,,,Chinese Restaurant,Chinese,,0.0,1.0,,,0.0,,Queens,Jamaica Estates-Holliswood,QN06
161,Golden Chinese Restaurant,Chinese Restaurant,17817 Union Tpke,,40.72650083353104,-73.7893624698676,"[{'label': 'display', 'lat': 40.726500833531034, 'lng': -73.7893624698676}]",534,11366,US,Fresh Meadows,NY,United States,"['17817 Union Tpke', 'Fresh Meadows, NY 11366', 'United States']",,4e4dc09abd41b76bef929357,,,Chinese Restaurant,Chinese,,0.0,,,,1.0,,Queens,Jamaica Estates-Holliswood,QN06
162,Latty's Jamaican Restaurant,Caribbean Restaurant,19910 Linden Blvd,,40.69401931762695,-73.75294494628906,"[{'label': 'display', 'lat': 40.69401931762695, 'lng': -73.75294494628906}]",457,11412,US,Saint Albans,NY,United States,"['19910 Linden Blvd', 'Saint Albans, NY 11412', 'United States']",,4e4e3d99bd4101d0d7a5b467,,,Caribbean Restaurant,Caribbean,,2.0,1.0,,,1.0,,Queens,St. Albans,QN08
163,OG Restaurant,Caribbean Restaurant,205-03 Linden Blvd,205th Street,40.69591796,-73.7473876,"[{'label': 'display', 'lat': 40.69591796, 'lng': -73.7473876}]",510,11412,US,Saint Albans,NY,United States,"['205-03 Linden Blvd (205th Street)', 'Saint Albans, NY 11412', 'United States']",,4d03c337e350b60cd91c7f42,,,Caribbean Restaurant,Caribbean,,2.0,,,,2.0,,Queens,Queens Village,QN34
164,El Pilon Restaurant,European Restaurant,218-28 A Merrick Blvd,,40.67947432049452,-73.75076498267791,"[{'label': 'display', 'lat': 40.67947432049452, 'lng': -73.7507649826779}]",259,11413,US,Springfield Gardens,NY,United States,"['218-28 A Merrick Blvd', 'Springfield Gardens, NY 11413', 'United States']",,4bba03c353649c74b27e48fb,,,Spanish Restaurant,Spanish,,0.0,,,,0.0,,Queens,Laurelton,QN66
166,Spring Gardens Jamaican Restaurant,Caribbean Restaurant,135-29 Springfield Blvd,,40.67807177641336,-73.754507440851,"[{'label': 'display', 'lat': 40.678071776413354, 'lng': -73.754507440851}]",326,11413,US,Jamaica,NY,United States,"['135-29 Springfield Blvd', 'Jamaica, NY 11413', 'United States']",,4ca88080b0b8236a48e2b3e6,,,Caribbean Restaurant,Caribbean,7.3,14.0,,,,3.0,21.0,Queens,Laurelton,QN66
167,a taberna Portuguese restaurant,European Restaurant,,,40.685054779052734,-73.75040435791016,"[{'label': 'display', 'lat': 40.685054779052734, 'lng': -73.75040435791016}]",526,,US,,New York,United States,"['New York', 'United States']",,5160cbc4e4b0d61dc7901a5a,,,Portuguese Restaurant,Portuguese,,1.0,,,,0.0,,Queens,Laurelton,QN66
168,Hot Pot Jamaican & American Restaurant,Caribbean Restaurant,11632 Springfield Blvd,,40.69682312011719,-73.74359130859375,"[{'label': 'display', 'lat': 40.69682312011719, 'lng': -73.74359130859375}]",307,11411,US,Cambria Heights,NY,United States,"['11632 Springfield Blvd', 'Cambria Heights, NY 11411', 'United States']",,4e4e3d83bd4101d0d7a5b245,,,Caribbean Restaurant,Caribbean,,0.0,1.0,,,0.0,,Queens,Cambria Heights,QN33
169,First Choice Restaurant,Chinese Restaurant,12926 Merrick Blvd,,40.68034744262695,-73.76347351074219,"[{'label': 'display', 'lat': 40.68034744262695, 'lng': -73.76347351074219}]",80,11434,US,Jamaica,NY,United States,"['12926 Merrick Blvd', 'Jamaica, NY 11434', 'United States']",,4e4e3de5bd4101d0d7a5bc42,,,Chinese Restaurant,Chinese,,0.0,,,,0.0,,Queens,St. Albans,QN08
170,Kuntry Bickle Jamaican Restaurant,Caribbean Restaurant,13030 Farmers Blvd,,40.67952800000001,-73.761678,"[{'label': 'display', 'lat': 40.679528, 'lng': -73.761678}]",106,11434,US,Jamaica,NY,United States,"['13030 Farmers Blvd', 'Jamaica, NY 11434', 'United States']",,4e4e3de9bd4101d0d7a5bcaf,,,Caribbean Restaurant,Caribbean,,0.0,,,,0.0,,Queens,St. Albans,QN08
171,Queen Of The Sea Restaurant,Seafood Restaurant,12619 Merrick Blvd,,40.68190002441406,-73.76556396484375,"[{'label': 'display', 'lat': 40.68190002441406, 'lng': -73.76556396484375}]",327,11434,US,Jamaica,NY,United States,"['12619 Merrick Blvd', 'Jamaica, NY 11434', 'United States']",,4e4e3de7bd4101d0d7a5bc84,,,Seafood Restaurant,Seafood,,0.0,2.0,,,0.0,,Queens,St. Albans,QN08
172,Foo On Restaurant,Chinese Restaurant,18304 Hillside Ave,,40.71381298188884,-73.77863321836624,"[{'label': 'display', 'lat': 40.713812981888836, 'lng': -73.77863321836624}]",158,11432,US,Jamaica,NY,United States,"['18304 Hillside Ave', 'Jamaica, NY 11432', 'United States']",,4b54a474f964a5205ac427e3,,,Chinese Restaurant,Chinese,5.9,4.0,1.0,,,6.0,12.0,Queens,Jamaica,QN61
174,Sunshine Restaurant Food & Catering Inc,American Restaurant,18510 Hillside Ave,,40.71449686699461,-73.77662577794861,"[{'label': 'display', 'lat': 40.71449686699461, 'lng': -73.77662577794861}]",268,11432,US,Jamaica,NY,United States,"['18510 Hillside Ave', 'Jamaica, NY 11432', 'United States']",,4b3e3aedf964a520d89925e3,,,American Restaurant,American,,0.0,,,,0.0,,Queens,Jamaica Estates-Holliswood,QN06
175,Sun Shine Restaurant,Indian Restaurant,18510 Hillside Ave,,40.71413803100586,-73.77654266357422,"[{'label': 'display', 'lat': 40.71413803100586, 'lng': -73.77654266357422}]",285,11432,US,Jamaica,NY,United States,"['18510 Hillside Ave', 'Jamaica, NY 11432', 'United States']",,4e4e3e21bd4101d0d7a5c2a8,,,Indian Restaurant,Indian,,0.0,,,,0.0,,Queens,Jamaica,QN61
176,Roti Corner Restaurant,Caribbean Restaurant,180-18 Hillside Ave,Btw 180th St & 181th St,40.71282196044922,-73.78184509277344,"[{'label': 'display', 'lat': 40.71282196044922, 'lng': -73.78184509277344}]",297,11432,US,Jamaica,NY,United States,"['180-18 Hillside Ave (Btw 180th St & 181th St)', 'Jamaica, NY 11432', 'United States']",,4bfeac89cdfbef3b7355323e,,,Caribbean Restaurant,Caribbean,,0.0,,,,2.0,,Queens,Jamaica,QN61
177,Sunshine Grill and Restaurant,Indian Restaurant,185-10 Hillside Ave,,40.714020046780895,-73.77680962411708,"[{'label': 'display', 'lat': 40.71402004678091, 'lng': -73.77680962411708}]",268,11432,US,Jamaica,NY,United States,"['185-10 Hillside Ave', 'Jamaica, NY 11432', 'United States']",,4c66f1ac8e9120a1b266d964,,,Indian Restaurant,Indian,,0.0,,,,1.0,,Queens,Jamaica,QN61
178,Number One Chinese Restaurant,Chinese Restaurant,17937 Hillside Ave,,40.71290733654447,-73.78279840634876,"[{'label': 'display', 'lat': 40.71290733654447, 'lng': -73.78279840634876}]",344,11432,US,Jamaica,NY,United States,"['17937 Hillside Ave', 'Jamaica, NY 11432', 'United States']",,4f32982919836c91c7e70a30,,,Chinese Restaurant,Chinese,,2.0,1.0,,,0.0,,Queens,Jamaica Estates-Holliswood,QN06
179,Rocoto Restaurant,Latin American Restaurant,178-27 Hillside Ave,,40.712630218995535,-73.78441367760291,"[{'label': 'display', 'lat': 40.71263021899553, 'lng': -73.78441367760291}]",471,11432,US,Jamaica,NY,United States,"['178-27 Hillside Ave', 'Jamaica, NY 11432', 'United States']",,50ccf2a1e4b0ed7c3c147d20,,,Peruvian Restaurant,Peruvian,,0.0,,,,2.0,,Queens,Jamaica Estates-Holliswood,QN06
180,El Coyote Mexican Restaurant,Mexican Restaurant,17827 Hillside Ave,,40.71280288696289,-73.78466033935547,"[{'label': 'display', 'lat': 40.71280288696289, 'lng': -73.78466033935547}]",479,11432,US,Jamaica,NY,United States,"['17827 Hillside Ave', 'Jamaica, NY 11432', 'United States']",,4f3299bc19836c91c7e7a198,,,Mexican Restaurant,Mexican,,0.0,,,,0.0,,Queens,Jamaica Estates-Holliswood,QN06
181,Kaieteur,Caribbean Restaurant,88-08 183rd St,,40.71364606250178,-73.77876297920827,"[{'label': 'display', 'lat': 40.71364606250178, 'lng': -73.77876297920827}]",22,11423,US,Hollis,NY,United States,"['88-08 183rd St', 'Hollis, NY 11423', 'United States']",,4e416b4be4cd432464370733,,,Caribbean Restaurant,Caribbean,,4.0,,,,1.0,,Queens,Jamaica,QN61
182,Macumba Bar & Restaurant,Latin American Restaurant,184-35 Jamaica Ave,,40.709512900895604,-73.7747413449696,"[{'label': 'display', 'lat': 40.709512900895604, 'lng': -73.7747413449696}]",594,11423,US,Jamaica,NY,United States,"['184-35 Jamaica Ave', 'Jamaica, NY 11423', 'United States']",,4f57aadde4b071452f378784,,,Latin American Restaurant,Latin American,,1.0,,,,2.0,,Queens,Jamaica,QN61
183,Sagar Restaurant,Indian Restaurant,168-25 B Hillside Ave,,40.710328623498505,-73.79412262466633,"[{'label': 'display', 'lat': 40.710328623498505, 'lng': -73.79412262466633}]",521,11432,US,Jamaica,NY,United States,"['168-25 B Hillside Ave', 'Jamaica, NY 11432', 'United States']",,4c434b2bd691c9b6ef8f8f0a,,,Indian Restaurant,Indian,7.2,10.0,1.0,,,6.0,17.0,Queens,Briarwood-Jamaica Hills,QN35
184,Rasana Restaurant,Indian Restaurant,168-19 Hillside Ave,,40.710923,-73.7928,"[{'label': 'display', 'lat': 40.710923, 'lng': -73.7928}]",428,11432,US,Jamaica,NY,United States,"['168-19 Hillside Ave', 'Jamaica, NY 11432', 'United States']",,4dfaf9a7628460789531f572,,,Indian Restaurant,Indian,,0.0,,,,0.0,,Queens,Jamaica Estates-Holliswood,QN06
187,Candiluz Restaurant,Restaurant,17220 Hillside Ave,at 173rd St.,40.71168518066406,-73.7894287109375,"[{'label': 'display', 'lat': 40.71168518066406, 'lng': -73.7894287109375}]",400,11432,US,Jamaica,NY,United States,"['17220 Hillside Ave (at 173rd St.)', 'Jamaica, NY 11432', 'United States']",,4cc476faf49676b0419972d5,,,Restaurant,Restaurant,,0.0,1.0,,,0.0,,Queens,Jamaica,QN61
188,Ghoroa Sweets & Restaurant,Indian Restaurant,168-41 Hillside Ave,,40.710766273683255,-73.79340678825332,"[{'label': 'display', 'lat': 40.71076627368326, 'lng': -73.79340678825332}]",456,11432,US,Jamaica,NY,United States,"['168-41 Hillside Ave', 'Jamaica, NY 11432', 'United States']",,4c69c4b58e7c0f47d48de00f,,,Indian Restaurant,Indian,,1.0,1.0,,,4.0,,Queens,Briarwood-Jamaica Hills,QN35
189,Sagar Sweets and Restaurant,Indian Restaurant,16825 Hillside Ave,,40.71050643920898,-73.79429626464844,"[{'label': 'display', 'lat': 40.710506439208984, 'lng': -73.79429626464844}]",508,11432,US,Jamaica,NY,United States,"['16825 Hillside Ave', 'Jamaica, NY 11432', 'United States']",,4f44d0f619836ed00196b6a9,,,Indian Restaurant,Indian,,0.0,,,,0.0,,Queens,Briarwood-Jamaica Hills,QN35
190,Phở Hoài Restaurant,Asian Restaurant,1906 Avenue U,at E 19th St.,40.5992166389853,-73.95242240802057,"[{'label': 'display', 'lat': 40.599216638985304, 'lng': -73.95242240802057}, {'label': 'entrance', 'lat': 40.599165, 'lng': -73.95234}]",512,11229,US,Brooklyn,NY,United States,"['1906 Avenue U (at E 19th St.)', 'Brooklyn, NY 11229', 'United States']",,49e1ed26f964a520e8611fe3,,,Vietnamese Restaurant,Vietnamese,8.2,67.0,1.0,,,34.0,109.0,Brooklyn,Madison,BK44
192,Ngo Restaurant,Asian Restaurant,,,40.600922,-73.95446899999997,"[{'label': 'display', 'lat': 40.600922, 'lng': -73.954469}]",290,11229,US,Brooklyn,NY,United States,"['Brooklyn, NY 11229', 'United States']",,51200cf8e4b02e58c7de7c40,,,Vietnamese Restaurant,Vietnamese,,0.0,,,,0.0,,Brooklyn,Madison,BK44
193,Rayhon Restaurant,European Restaurant,1915 u Avenue,E 19th St,40.59940200000001,-73.95224300000002,"[{'label': 'display', 'lat': 40.599402, 'lng': -73.952243}]",498,11229,US,New York,NY,United States,"['1915 u Avenue (E 19th St)', 'New York, NY 11229', 'United States']",,5c15cc93e55d8b002c9d3292,,,Eastern European Restaurant,Eastern European,,0.0,,,,0.0,,Brooklyn,Madison,BK44
194,Three Star Restaurant,American Restaurant,1611 Avenue U,btwn E 16th St. & E 17th St.,40.59904339871702,-73.95498692257671,"[{'label': 'display', 'lat': 40.59904339871702, 'lng': -73.95498692257671}, {'label': 'entrance', 'lat': 40.599092, 'lng': -73.95505}]",500,11229,US,Brooklyn,NY,United States,"['1611 Avenue U (btwn E 16th St. & E 17th St.)', 'Brooklyn, NY 11229', 'United States']",,4b928bc0f964a520f90234e3,,,American Restaurant,American,6.7,28.0,2.0,,,8.0,50.0,Brooklyn,Madison,BK44
195,East Ocean Seafood Restaurant,Chinese Restaurant,1818 Avenue U,at E 18th St,40.599196988738925,-73.95288462653423,"[{'label': 'display', 'lat': 40.59919698873892, 'lng': -73.95288462653423}, {'label': 'entrance', 'lat': 40.599103, 'lng': -73.952893}]",501,11229,US,Brooklyn,NY,United States,"['1818 Avenue U (at E 18th St)', 'Brooklyn, NY 11229', 'United States']",,4c4eeefdfa9d9521cebd6e0a,,,Chinese Restaurant,Chinese,,0.0,1.0,,,3.0,,Brooklyn,Madison,BK44
196,1818 Seafood Restaurant,Chinese Restaurant,1818 Avenue U,,40.59897,-73.952867,"[{'label': 'display', 'lat': 40.59897, 'lng': -73.952867}]",526,11229,US,Brooklyn,NY,United States,"['1818 Avenue U', 'Brooklyn, NY 11229', 'United States']",,518aec42498eb2bfe8ef33ed,,,Chinese Restaurant,Chinese,,4.0,,,,2.0,,Brooklyn,Madison,BK44
197,El Mexicano,Mexican Restaurant,1607 Avenue U,,40.599216,-73.95519,"[{'label': 'display', 'lat': 40.599216, 'lng': -73.95519}, {'label': 'entrance', 'lat': 40.599079, 'lng': -73.955166}]",482,11229,US,Brooklyn,NY,United States,"['1607 Avenue U', 'Brooklyn, NY 11229', 'United States']",,4f11ec96e4b0960dff533a98,,,Mexican Restaurant,Mexican,,1.0,,,,1.0,,Brooklyn,Madison,BK44
200,Best China,Chinese Restaurant,1624 E 16th St,,40.60982894897461,-73.95767211914062,"[{'label': 'display', 'lat': 40.60982894897461, 'lng': -73.95767211914062}]",46,11229,US,Brooklyn,NY,United States,"['1624 E 16th St', 'Brooklyn, NY 11229', 'United States']",,4e4d06aebd413c4cc66e1599,,,Chinese Restaurant,Chinese,,0.0,1.0,,,0.0,,Brooklyn,Madison,BK44
201,Buckley's Restaurant and Catering,American Restaurant,2926 Avenue S,at Nostrand Ave.,40.605006797156975,-73.94303131001273,"[{'label': 'display', 'lat': 40.605006797156975, 'lng': -73.94303131001274}, {'label': 'entrance', 'lat': 40.604921, 'lng': -73.943093}]",274,11229,US,Brooklyn,NY,United States,"['2926 Avenue S (at Nostrand Ave.)', 'Brooklyn, NY 11229', 'United States']",,4b26d8d7f964a520e28124e3,,,American Restaurant,American,7.5,45.0,3.0,,,19.0,77.0,Brooklyn,Madison,BK44
205,Osaka Japanese restaurant,Asian Restaurant,2805 Avenue U,Ave U,40.60033748322529,-73.94351613558916,"[{'label': 'display', 'lat': 40.60033748322529, 'lng': -73.94351613558916}, {'label': 'entrance', 'lat': 40.600351, 'lng': -73.943552}]",361,11229,US,Brooklyn,NY,United States,"['2805 Avenue U (Ave U)', 'Brooklyn, NY 11229', 'United States']",,4c68683d607ad13a179ba82b,,,Japanese Restaurant,Japanese,5.9,6.0,2.0,,,8.0,17.0,Brooklyn,Madison,BK44
206,Kavkazkiy Devorik Restaurant,Restaurant,2715 Avenue U,,40.600605,-73.94411,"[{'label': 'display', 'lat': 40.600605, 'lng': -73.94411}]",369,11229,US,Brooklyn,NY,United States,"['2715 Avenue U', 'Brooklyn, NY 11229', 'United States']",,57a69def498e5d0ba31fa063,,,Restaurant,Restaurant,,1.0,,,,0.0,,Brooklyn,Madison,BK44
208,Mei Mei Chinese Restaurant,Chinese Restaurant,3566 Nostrand Ave,,40.597103999999995,-73.941539,"[{'label': 'display', 'lat': 40.597103999999995, 'lng': -73.941539}, {'label': 'entrance', 'lat': 40.59702, 'lng': -73.941412}]",429,11229,US,Brooklyn,NY,United States,"['3566 Nostrand Ave', 'Brooklyn, NY 11229', 'United States']",,50f6e311e4b01dbca9b53095,,,Chinese Restaurant,Chinese,,1.0,1.0,,,0.0,,Brooklyn,Sheepshead Bay-Gerritsen Beach-Manhattan Beach,BK17
209,Sakura,Asian Restaurant,3118 Avenue U,at Gerritsen Ave.,40.601850763188594,-73.93450273815975,"[{'label': 'display', 'lat': 40.60185076318859, 'lng': -73.93450273815975}, {'label': 'entrance', 'lat': 40.601947, 'lng': -73.934495}]",409,11229,US,Brooklyn,NY,United States,"['3118 Avenue U (at Gerritsen Ave.)', 'Brooklyn, NY 11229', 'United States']",,4c140e42a1010f4742d24b18,,,Japanese Restaurant,Japanese,7.8,9.0,3.0,,,3.0,14.0,Brooklyn,Sheepshead Bay-Gerritsen Beach-Manhattan Beach,BK17
210,Madina Restaurant and Sweets,Indian Restaurant,563 Coney Island Ave,Beverly Rd & Lewis Pl,40.64369687020608,-73.96999901276827,"[{'label': 'display', 'lat': 40.64369687020608, 'lng': -73.96999901276827}, {'label': 'entrance', 'lat': 40.643601, 'lng': -73.969868}]",368,11218,US,Brooklyn,NY,United States,"['563 Coney Island Ave (Beverly Rd & Lewis Pl)', 'Brooklyn, NY 11218', 'United States']",,4b718914f964a520c04b2de3,,,Indian Restaurant,Indian,6.6,17.0,,,,12.0,33.0,Brooklyn,Flatbush,BK42
211,Primavera Restaurant,Latin American Restaurant,623 Church Ave,,40.645422,-73.97340600000003,"[{'label': 'display', 'lat': 40.645422, 'lng': -73.973406}, {'label': 'entrance', 'lat': 40.645467, 'lng': -73.973447}]",214,11218,US,Brooklyn,NY,United States,"['623 Church Ave', 'Brooklyn, NY 11218', 'United States']",Kensington,577c1866498e094bfd909c19,,,Latin American Restaurant,Latin American,,0.0,,,,1.0,,Brooklyn,Windsor Terrace,BK40
215,Kohinoor Restaurant,Indian Restaurant,413 Cortelyou Rd,,40.638488,-73.974885,"[{'label': 'display', 'lat': 40.638488, 'lng': -73.974885}]",212,11218,US,Brooklyn,NY,United States,"['413 Cortelyou Rd', 'Brooklyn, NY 11218', 'United States']",,5754cfc9498e848fcf38d2c9,,,Indian Restaurant,Indian,,0.0,,,,0.0,,Brooklyn,Kensington-Ocean Parkway,BK41
217,Shandar Sweet & Restaurant,Restaurant,679 Coney Island Ave,,40.640933000000004,-73.968928,"[{'label': 'display', 'lat': 40.640933000000004, 'lng': -73.968928}, {'label': 'entrance', 'lat': 40.640912, 'lng': -73.969094}]",440,11218,US,Brooklyn,NY,United States,"['679 Coney Island Ave', 'Brooklyn, NY 11218', 'United States']",,4d866c1750913704eaceab5b,,,Restaurant,Restaurant,,2.0,,,,0.0,,Brooklyn,Flatbush,BK42
219,Zaragoza's Restaurant,Mexican Restaurant,3623 Fort Hamilton Pkwy,,40.644006,-73.988637,"[{'label': 'display', 'lat': 40.644006, 'lng': -73.988637}, {'label': 'entrance', 'lat': 40.644101, 'lng': -73.988798}]",594,11218,US,Brooklyn,NY,United States,"['3623 Fort Hamilton Pkwy', 'Brooklyn, NY 11218', 'United States']",,53a85590498e962965ff6c32,,,Mexican Restaurant,Mexican,,0.0,,,,0.0,,Brooklyn,Borough Park,BK88
222,Dragon Chinese Restaurant,Chinese Restaurant,414 Ditmas Ave,,40.635752000000004,-73.974352,"[{'label': 'display', 'lat': 40.635752000000004, 'lng': -73.974352}]",485,11218,US,Brooklyn,NY,United States,"['414 Ditmas Ave', 'Brooklyn, NY 11218', 'United States']",,4f32190b19836c91c7b599ec,,,Chinese Restaurant,Chinese,,0.0,2.0,,,0.0,,Brooklyn,Kensington-Ocean Parkway,BK41
223,Lahori Chilli Restaurant and Sweets,Restaurant,1026 Coney Island Ave,,40.63245300000001,-73.96718100000002,"[{'label': 'display', 'lat': 40.632453, 'lng': -73.967181}]",562,11230,US,Brooklyn,NY,United States,"['1026 Coney Island Ave', 'Brooklyn, NY 11230', 'United States']",,55a49e90498e3ac24c0e7545,,,Restaurant,Restaurant,7.6,7.0,,,,1.0,8.0,Brooklyn,Flatbush,BK42
224,Chatkhara Restaurant & Sweets,Indian Restaurant,964 Coney Island Ave,,40.6339111328125,-73.96730041503906,"[{'label': 'display', 'lat': 40.6339111328125, 'lng': -73.96730041503906}]",429,11230,US,Brooklyn,NY,United States,"['964 Coney Island Ave', 'Brooklyn, NY 11230', 'United States']",,53c969f1498edc8c0e3a53e3,,,Indian Restaurant,Indian,,1.0,,,,0.0,,Brooklyn,Flatbush,BK42
225,No. 1 Restaurant,Chinese Restaurant,,,40.647219704103186,-73.96847373766279,"[{'label': 'display', 'lat': 40.64721970410319, 'lng': -73.96847373766282}]",495,11218,US,Brooklyn,NY,United States,"['Brooklyn, NY 11218', 'United States']",,4c2bd8d1b34ad13ac278eace,,,Chinese Restaurant,Chinese,,0.0,,,,0.0,,Brooklyn,Flatbush,BK42
226,Mashallah,Indian Restaurant,663 Coney Island Ave,btwn Slocum Pl & Cortelyou Rd,40.64123142727024,-73.9693211845751,"[{'label': 'display', 'lat': 40.641231427270235, 'lng': -73.9693211845751}]",254,11218,US,Brooklyn,NY,United States,"['663 Coney Island Ave (btwn Slocum Pl & Cortelyou Rd)', 'Brooklyn, NY 11218', 'United States']",,4db0f4371e729fcc56497f20,,,Indian Restaurant,Indian,7.7,20.0,,,,7.0,28.0,Brooklyn,Flatbush,BK42
227,La Déesee Restaurant,Caribbean Restaurant,1696 Nostrand Ave,,40.644318,-73.949126,"[{'label': 'display', 'lat': 40.644318, 'lng': -73.949126}, {'label': 'entrance', 'lat': 40.644326, 'lng': -73.949017}]",364,11226,US,Brooklyn,NY,United States,"['1696 Nostrand Ave', 'Brooklyn, NY 11226', 'United States']",,4f32989319836c91c7e731d4,,,Caribbean Restaurant,Caribbean,,0.0,,,,0.0,,Brooklyn,Erasmus,BK95
228,Taste of China Restaurant,Chinese Restaurant,1853 Nostrand Ave,Avenue D,40.64050200000001,-73.948184,"[{'label': 'display', 'lat': 40.640502000000005, 'lng': -73.948184}, {'label': 'entrance', 'lat': 40.640551, 'lng': -73.948333}]",156,11226,US,Brooklyn,NY,United States,"['1853 Nostrand Ave (Avenue D)', 'Brooklyn, NY 11226', 'United States']",,4cfef9c3f1605481e9ce96ea,,,Chinese Restaurant,Chinese,,2.0,,,,0.0,,Brooklyn,Erasmus,BK95
230,FLAVA II  RESTAURANT AND BAKERY,Caribbean Restaurant,Nostrand Avenue,Foster Avenue,40.639101463531105,-73.94841860476781,"[{'label': 'display', 'lat': 40.63910146353111, 'lng': -73.94841860476781}]",297,11210,US,Brooklyn,NY,United States,"['Nostrand Avenue (Foster Avenue)', 'Brooklyn, NY 11210', 'United States']",,513fb5e3e4b0249deeed386d,,,Caribbean Restaurant,Caribbean,,0.0,,,,0.0,,Brooklyn,Erasmus,BK95
231,Pearlys Jamaican Restaurant,Latin American Restaurant,1736 Nostrand Ave,,40.64366912841797,-73.94912719726562,"[{'label': 'display', 'lat': 40.64366912841797, 'lng': -73.94912719726562}]",304,11226,US,Brooklyn,NY,United States,"['1736 Nostrand Ave', 'Brooklyn, NY 11226', 'United States']",,4f438c8f19834bc91f57736f,,,Food,Food,,0.0,,,,0.0,,Brooklyn,Erasmus,BK95
232,China Dragon Restaurant,Chinese Restaurant,Clarendon Rd,Flatbush ave,40.64287304126477,-73.9526662881847,"[{'label': 'display', 'lat': 40.642873041264764, 'lng': -73.9526662881847}]",509,11226,US,Brooklyn,NY,United States,"['Clarendon Rd (Flatbush ave)', 'Brooklyn, NY 11226', 'United States']",,4b898cbcf964a520f14032e3,,,Chinese Restaurant,Chinese,,0.0,1.0,,,0.0,,Brooklyn,Erasmus,BK95
233,Kenny's Restaurant,Chinese Restaurant,1924 Nostrand Ave,Foster Avenue,40.63874357,-73.94846481,"[{'label': 'display', 'lat': 40.63874357, 'lng': -73.94846481}, {'label': 'entrance', 'lat': 40.638754, 'lng': -73.94843}]",335,11226,US,Brooklyn,NY,United States,"['1924 Nostrand Ave (Foster Avenue)', 'Brooklyn, NY 11226', 'United States']",,4c4b6fc2c8b6b713023b47fb,,,Chinese Restaurant,Chinese,,0.0,,,,0.0,,Brooklyn,Erasmus,BK95
234,The Loft BKNY Restaurant & Lounge,Caribbean Restaurant,1712 Nostrand Ave,,40.64419174194336,-73.94914245605469,"[{'label': 'display', 'lat': 40.64419174194336, 'lng': -73.94914245605469}]",352,11226,US,New York,NY,United States,"['1712 Nostrand Ave', 'New York, NY 11226', 'United States']",,5ce76a3e471d6e002c259349,,,Caribbean Restaurant,Caribbean,,1.0,,,,0.0,,Brooklyn,Erasmus,BK95
235,Breeze's Jamaican Restaurant,Caribbean Restaurant,1135 Flatbush Ave,,40.642555,-73.957225,"[{'label': 'display', 'lat': 40.642555, 'lng': -73.957225}, {'label': 'entrance', 'lat': 40.642535, 'lng': -73.957399}]",343,11226,US,Brooklyn,NY,United States,"['1135 Flatbush Ave', 'Brooklyn, NY 11226', 'United States']",,4e33140eb0fb17f64f7edaac,,,Caribbean Restaurant,Caribbean,6.3,5.0,2.0,,,2.0,9.0,Brooklyn,Erasmus,BK95
236,Banana Boat Restaurant,Caribbean Restaurant,1138 Flatbush Ave,Clarendon Road,40.64262,-73.95792800000002,"[{'label': 'display', 'lat': 40.64262, 'lng': -73.95792800000001}, {'label': 'entrance', 'lat': 40.642638, 'lng': -73.95777}]",332,11226,US,Brooklyn,NY,United States,"['1138 Flatbush Ave (Clarendon Road)', 'Brooklyn, NY 11226', 'United States']",,55cf6fd5498ed97f45d66288,,,Caribbean Restaurant,Caribbean,,2.0,,,,0.0,,Brooklyn,Flatbush,BK42
237,Cam Tak Express Restaurant,Chinese Restaurant,1073 Flatbush Ave,Beverley & Cortelyou Rd,40.64437,-73.957677,"[{'label': 'display', 'lat': 40.64437, 'lng': -73.957677}, {'label': 'entrance', 'lat': 40.644367, 'lng': -73.957792}]",138,11226,US,Brooklyn,NY,United States,"['1073 Flatbush Ave (Beverley & Cortelyou Rd)', 'Brooklyn, NY 11226', 'United States']",,4be756a4910020a1db5ad514,,,Chinese Restaurant,Chinese,6.8,3.0,,,,8.0,9.0,Brooklyn,Erasmus,BK95
238,Patience Haitian Restaurant,Caribbean Restaurant,1197 Flatbush Ave,Ave D,40.641029357910156,-73.95578002929688,"[{'label': 'display', 'lat': 40.641029357910156, 'lng': -73.95578002929688}]",538,11226,US,Brooklyn,NY,United States,"['1197 Flatbush Ave (Ave D)', 'Brooklyn, NY 11226', 'United States']",,4cf9a6dfee9cb60ccf9a85ad,,,Caribbean Restaurant,Caribbean,,1.0,,,,0.0,,Brooklyn,Erasmus,BK95
239,Yummy Chinese Restaurant,Chinese Restaurant,1195 Flatbush Ave,,40.64107,-73.955832,"[{'label': 'display', 'lat': 40.64107, 'lng': -73.955832}, {'label': 'entrance', 'lat': 40.641042, 'lng': -73.955984}]",532,11226,US,Brooklyn,NY,United States,"['1195 Flatbush Ave', 'Brooklyn, NY 11226', 'United States']",,4ec5b973f5b9e88190874d45,,,Chinese Restaurant,Chinese,,0.0,,,,0.0,,Brooklyn,Erasmus,BK95
240,Quezada  Restaurant,European Restaurant,,,40.640706,-73.956151,"[{'label': 'display', 'lat': 40.640706, 'lng': -73.956151}, {'label': 'entrance', 'lat': 40.640734, 'lng': -73.95606}]",563,11226,US,Brooklyn,NY,United States,"['Brooklyn, NY 11226', 'United States']",,50d1e1bbe4b0faa00ae867d9,,,Spanish Restaurant,Spanish,,1.0,,,,0.0,,Brooklyn,Flatbush,BK42
241,C B Finger Licking Jamaican and West Indian Restaurant,Indian Restaurant,1617 Nostrand Ave,,40.64662170410156,-73.94880676269531,"[{'label': 'entrance', 'lat': 40.646603, 'lng': -73.94898}, {'label': 'display', 'lat': 40.64662170410156, 'lng': -73.94880676269531}]",162,11226,US,Brooklyn,NY,United States,"['1617 Nostrand Ave', 'Brooklyn, NY 11226', 'United States']",,4f32549519836c91c7cd23e2,,,Food,Food,,0.0,,,,0.0,,Brooklyn,Erasmus,BK95
243,Wing Hing Chinese Restaurant,Chinese Restaurant,1148 Flatbush Ave,Dorchester,40.639947491102994,-73.95233790920477,"[{'label': 'display', 'lat': 40.639947491102994, 'lng': -73.95233790920476}]",292,11226,US,Brooklyn,NY,United States,"['1148 Flatbush Ave (Dorchester)', 'Brooklyn, NY 11226', 'United States']",,4cfb1dce2d80a143d6a749d8,,,Chinese Restaurant,Chinese,,2.0,,,,2.0,,Brooklyn,Erasmus,BK95
244,Picky Eaters Restaurant,Caribbean Restaurant,1456 Flatbush Ave,Farragut & Glenwood,40.635307577301404,-73.95026693253655,"[{'label': 'display', 'lat': 40.63530757730141, 'lng': -73.95026693253654}, {'label': 'entrance', 'lat': 40.635216, 'lng': -73.950422}]",477,11210,US,Brooklyn,NY,United States,"['1456 Flatbush Ave (Farragut & Glenwood)', 'Brooklyn, NY 11210', 'United States']",,526c544c498ee9d3382a3f3e,,,Caribbean Restaurant,Caribbean,,4.0,,,,3.0,,Brooklyn,Flatbush,BK42
245,C & C Restaurant,Caribbean Restaurant,1183 Rogers Ave,at Avenue D,40.63972831970797,-73.95251112961414,"[{'label': 'display', 'lat': 40.63972831970797, 'lng': -73.95251112961414}, {'label': 'entrance', 'lat': 40.641115, 'lng': -73.951299}]",303,11226,US,Brooklyn,NY,United States,"['1183 Rogers Ave (at Avenue D)', 'Brooklyn, NY 11226', 'United States']",,4feb980de4b008a76813d0a3,,,Caribbean Restaurant,Caribbean,,4.0,,,,3.0,,Brooklyn,Erasmus,BK95
246,Exquisite Restaurant,Caribbean Restaurant,2905 Glenwood Rd,Flatbush Ave.,40.634094,-73.948488,"[{'label': 'display', 'lat': 40.634094, 'lng': -73.948488}, {'label': 'entrance', 'lat': 40.634062, 'lng': -73.948528}]",600,11210,US,Brooklyn,NY,United States,"['2905 Glenwood Rd (Flatbush Ave.)', 'Brooklyn, NY 11210', 'United States']",,4f5fcf3de4b0c27826e6c490,,,Caribbean Restaurant,Caribbean,6.5,5.0,,,,1.0,8.0,Brooklyn,Flatbush,BK42
247,Kreyol Flavor Bakery & Restaurant,Caribbean Restaurant,2816 Church Ave,,40.650820092517755,-73.95077705383302,"[{'label': 'display', 'lat': 40.650820092517755, 'lng': -73.95077705383301}]",222,11226,US,Brooklyn,NY,United States,"['2816 Church Ave', 'Brooklyn, NY 11226', 'United States']",,50b91d3de4b0802eb8488f39,,,Caribbean Restaurant,Caribbean,,1.0,,,,1.0,,Brooklyn,Prospect Lefferts Gardens-Wingate,BK60
248,C & J Jamaican Restaurant,Caribbean Restaurant,875 Flatbush Ave,Church ave,40.65075955507686,-73.95872100791313,"[{'label': 'display', 'lat': 40.65075955507686, 'lng': -73.95872100791313}, {'label': 'entrance', 'lat': 40.650771, 'lng': -73.958655}]",588,11226,US,Brooklyn,NY,United States,"['875 Flatbush Ave (Church ave)', 'Brooklyn, NY 11226', 'United States']",,4ba8b0a8f964a5203fe739e3,,,Caribbean Restaurant,Caribbean,5.6,17.0,,,,19.0,40.0,Brooklyn,Prospect Lefferts Gardens-Wingate,BK60
249,Green Lake Chinese Restaurant,Chinese Restaurant,795 Flatbush Ave,btw Lenox & Caton,40.653110497871054,-73.95934315157959,"[{'label': 'display', 'lat': 40.653110497871054, 'lng': -73.9593431515796}]",610,11226,US,Brooklyn,NY,United States,"['795 Flatbush Ave (btw Lenox & Caton)', 'Brooklyn, NY 11226', 'United States']",,4bfafc771134b713e48c0fc9,,,Chinese Restaurant,Chinese,7.8,5.0,1.0,,,5.0,11.0,Brooklyn,Prospect Lefferts Gardens-Wingate,BK60
252,Family Stylez Restaurant,Caribbean Restaurant,2710 Church Ave,Rodgers,40.65078910490234,-73.95233910507771,"[{'label': 'display', 'lat': 40.65078910490234, 'lng': -73.9523391050777}]",193,11226,US,Brooklyn,NY,United States,"['2710 Church Ave (Rodgers)', 'Brooklyn, NY 11226', 'United States']",,55962573498e4220d728565d,,,Caribbean Restaurant,Caribbean,,0.0,,,,0.0,,Brooklyn,Prospect Lefferts Gardens-Wingate,BK60
253,Kal's Bakery & Restaurant,Caribbean Restaurant,3401 Church Ave,,40.651083324918154,-73.94581012370908,"[{'label': 'display', 'lat': 40.65108332491816, 'lng': -73.94581012370908}, {'label': 'entrance', 'lat': 40.651126, 'lng': -73.945573}]",437,11203,US,Brooklyn,NY,United States,"['3401 Church Ave', 'Brooklyn, NY 11203', 'United States']",,4c0c025ca1b32d7fa0e49bf0,,,Caribbean Restaurant,Caribbean,6.4,11.0,,,,5.0,19.0,Brooklyn,Erasmus,BK95
254,Bake & Things Restaurant,Caribbean Restaurant,184 E 35th St,E35th Street and Church Avenue,40.650835325748616,-73.94477708287842,"[{'label': 'display', 'lat': 40.650835325748616, 'lng': -73.94477708287842}, {'label': 'entrance', 'lat': 40.650811, 'lng': -73.944857}]",493,11203,US,Brooklyn,NY,United States,"['184 E 35th St (E35th Street and Church Avenue)', 'Brooklyn, NY 11203', 'United States']",,4be36a22d27a20a12c41925b,,,Caribbean Restaurant,Caribbean,7.7,49.0,1.0,,,26.0,73.0,Brooklyn,East Flatbush-Farragut,BK91
255,New Fu Lai Chinese Restaurant,Chinese Restaurant,2249 Church Ave,,40.650657,-73.957133,"[{'label': 'display', 'lat': 40.650657, 'lng': -73.957133}]",93,11226,US,Brooklyn,NY,United States,"['2249 Church Ave', 'Brooklyn, NY 11226', 'United States']",,4f32ac6919836c91c7eea12b,,,Chinese Restaurant,Chinese,,1.0,,,,3.0,,Brooklyn,Prospect Lefferts Gardens-Wingate,BK60
256,Emelek Restaurant & Bakery,Caribbean Restaurant,82 E 18th St,Church,40.649169921875,-73.96321868896484,"[{'label': 'entrance', 'lat': 40.649175, 'lng': -73.963132}, {'label': 'display', 'lat': 40.649169921875, 'lng': -73.96321868896484}]",534,11226,US,Brooklyn,NY,United States,"['82 E 18th St (Church)', 'Brooklyn, NY 11226', 'United States']",,4c27cf8fe19720a1af09f758,,,Caribbean Restaurant,Caribbean,,0.0,,,,1.0,,Brooklyn,Flatbush,BK42
257,the vegetarian restaurant,American Restaurant,2101 Church Ave,Bedford Ave,40.6505012512207,-73.95954132080078,"[{'label': 'display', 'lat': 40.6505012512207, 'lng': -73.95954132080078}]",231,11226,US,Brooklyn,NY,United States,"['2101 Church Ave (Bedford Ave)', 'Brooklyn, NY 11226', 'United States']",,4d600366b6b9a1cd41227651,,,American Restaurant,American,,0.0,,,,0.0,,Brooklyn,Flatbush,BK42
258,Melany Restaurant,Latin American Restaurant,785 Flatbush Ave,Lenox Rd,40.653469025370654,-73.95936350543566,"[{'label': 'display', 'lat': 40.65346902537066, 'lng': -73.95936350543565}]",453,11226,US,Brooklyn,NY,United States,"['785 Flatbush Ave (Lenox Rd)', 'Brooklyn, NY 11226', 'United States']",,4c5c4f46857ca59311b4c9cb,,,Latin American Restaurant,Latin American,7.1,12.0,,,,6.0,19.0,Brooklyn,Prospect Lefferts Gardens-Wingate,BK60
259,El Rincon Restaurant & Grill,European Restaurant,"1296 Nostrand Ave, Brooklyn, NY 11226",,40.65529251098633,-73.95035552978516,"[{'label': 'display', 'lat': 40.65529251098633, 'lng': -73.95035552978516}]",298,11226,US,Brooklyn,NY,United States,"['1296 Nostrand Ave, Brooklyn, NY 11226', 'Brooklyn, NY 11226', 'United States']",,4eca758f0aaf9c3ccfc72fbf,,,Spanish Restaurant,Spanish,,1.0,,,,0.0,,Brooklyn,Prospect Lefferts Gardens-Wingate,BK60
261,"Golden Star Chinese Restaurant, Brooklyn",Chinese Restaurant,3719 Church Ave,,40.651463,-73.942184,"[{'label': 'display', 'lat': 40.651463, 'lng': -73.942184}, {'label': 'entrance', 'lat': 40.651267, 'lng': -73.942161}]",565,11203,US,Brooklyn,NY,United States,"['3719 Church Ave', 'Brooklyn, NY 11203', 'United States']",,4f32968319836c91c7e66afe,,,Chinese Restaurant,Chinese,,0.0,,,,0.0,,Brooklyn,East Flatbush-Farragut,BK91
262,Hunts Point Chinese Restaurant,Chinese Restaurant,901 Southern Blvd,at Barreto Ave,40.819668,-73.893199,"[{'label': 'display', 'lat': 40.819668, 'lng': -73.893199}]",369,10459,US,Bronx,NY,United States,"['901 Southern Blvd (at Barreto Ave)', 'Bronx, NY 10459', 'United States']",,4ed67263e300d4f60477f45e,,,Chinese Restaurant,Chinese,,2.0,,,,1.0,,Bronx,Hunts Point,BX27
263,Chang Jiang Kitchen Chinese Restaurant,Chinese Restaurant,1095 Prospect Ave,,40.82600021362305,-73.89936065673828,"[{'label': 'entrance', 'lat': 40.825957, 'lng': -73.899188}, {'label': 'display', 'lat': 40.82600021362305, 'lng': -73.89936065673828}]",524,10459,US,Bronx,NY,United States,"['1095 Prospect Ave', 'Bronx, NY 10459', 'United States']",,4e4cf9e7bd413c4cc66db004,,,Chinese Restaurant,Chinese,,0.0,1.0,,,0.0,,Bronx,Longwood,BX33
265,Food Bo Garden Chinese Restaurant,Chinese Restaurant,934 E 163rd St,,40.820736,-73.89659,"[{'label': 'display', 'lat': 40.820736, 'lng': -73.89659}, {'label': 'entrance', 'lat': 40.820861, 'lng': -73.896514}]",116,10459,US,Bronx,NY,United States,"['934 E 163rd St', 'Bronx, NY 10459', 'United States']",,4f3250b719836c91c7cba36c,,,Food,Food,,0.0,,,,0.0,,Bronx,Longwood,BX33
266,Georgina Restaurant,Latin American Restaurant,,,40.821236,-73.893107,"[{'label': 'display', 'lat': 40.821236, 'lng': -73.893107}, {'label': 'entrance', 'lat': 40.821116, 'lng': -73.893158}]",299,10459,US,Bronx,NY,United States,"['Bronx, NY 10459', 'United States']",,4c48792219fde21ea1ab0b76,,,Latin American Restaurant,Latin American,,2.0,,,,2.0,,Bronx,Hunts Point,BX27
267,Margarita's Restaurant,Latin American Restaurant,915 Avenue St John,,40.815857,-73.902596,"[{'label': 'display', 'lat': 40.815857, 'lng': -73.902596}]",71,10455,US,Bronx,NY,United States,"['915 Avenue St John', 'Bronx, NY 10455', 'United States']",Longwood,59ade71a86bc49021ba2d24c,,,Latin American Restaurant,Latin American,,0.0,,,,2.0,,Bronx,Longwood,BX33
268,Seis Vecinos Restaurant,Latin American Restaurant,640 Prospect Ave,Kelly St.,40.8153190612793,-73.90306091308594,"[{'label': 'entrance', 'lat': 40.815284, 'lng': -73.903206}, {'label': 'display', 'lat': 40.8153190612793, 'lng': -73.90306091308594}]",143,10455,US,Bronx,NY,United States,"['640 Prospect Ave (Kelly St.)', 'Bronx, NY 10455', 'United States']",,50494b11805554bc694d756f,,,Latin American Restaurant,Latin American,8.1,10.0,,,,6.0,14.0,Bronx,Longwood,BX33
269,Patron Mexican restaurant,Mexican Restaurant,835 E 152nd St,union ave and prospect ave,40.815238332710315,-73.90413075685501,"[{'label': 'display', 'lat': 40.81523833271032, 'lng': -73.90413075685501}]",209,10455,US,Bronx,NY,United States,"['835 E 152nd St (union ave and prospect ave)', 'Bronx, NY 10455', 'United States']",,5888bccd04ab1a046b31d08f,,,Mexican Restaurant,Mexican,,1.0,,,,0.0,,Bronx,Melrose South-Mott Haven North,BX34
271,King's Chef Chinese Restaurant,Chinese Restaurant,"1095 Prospect Ave, Bronx, NY 10459",,40.825988,-73.899325,"[{'label': 'display', 'lat': 40.825988, 'lng': -73.899325}]",217,10459,US,Bronx,NY,United States,"['1095 Prospect Ave, Bronx, NY 10459', 'Bronx, NY 10459', 'United States']",,4ec6e98e29c22cc60bb5190f,,,Chinese Restaurant,Chinese,,0.0,,,,0.0,,Bronx,Longwood,BX33
272,New Eastern Chinese Restaurant,Chinese Restaurant,930 Tinton Ave,,40.822447,-73.903068,"[{'label': 'display', 'lat': 40.822447, 'lng': -73.903068}, {'label': 'entrance', 'lat': 40.822487, 'lng': -73.903085}]",329,10456,US,Bronx,NY,United States,"['930 Tinton Ave', 'Bronx, NY 10456', 'United States']",,4e4cf9dabd413c4cc66daf80,,,Chinese Restaurant,Chinese,,0.0,,,,0.0,,Bronx,Morrisania-Melrose,BX35
274,Wang Eastern Chinese Restaurant,Chinese Restaurant,"780 E 163rd St, Bronx, NY 10459",,40.82205748646104,-73.90334150585015,"[{'label': 'display', 'lat': 40.82205748646104, 'lng': -73.90334150585016}]",378,10459,US,Bronx,NY,United States,"['780 E 163rd St, Bronx, NY 10459', 'Bronx, NY 10459', 'United States']",,4f540624e4b028a921200261,,,Chinese Restaurant,Chinese,,0.0,,,,0.0,,Bronx,Morrisania-Melrose,BX35
275,Fuh Wah Restaurant,Chinese Restaurant,,,40.81228821883985,-73.90752702051249,"[{'label': 'display', 'lat': 40.81228821883985, 'lng': -73.90752702051248}]",280,10455,US,Bronx,NY,United States,"['Bronx, NY 10455', 'United States']",,4f7cca93e4b006944e44ad63,,,Chinese Restaurant,Chinese,,0.0,,,,0.0,,Bronx,Mott Haven-Port Morris,BX39
276,3J Restaurant,European Restaurant,544 Prospect,,40.81247694199646,-73.90417402278409,"[{'label': 'display', 'lat': 40.81247694199646, 'lng': -73.90417402278409}]",9,,US,New York,NY,United States,"['544 Prospect', 'New York, NY', 'United States']",,54cbc8e7498e0db58a4110cc,,,Spanish Restaurant,Spanish,,0.0,,,,0.0,,Bronx,Longwood,BX33
277,Venice Restaurant & Pizzeria,Italian Restaurant,772 E 149th St,,40.812799240478064,-73.90733521559764,"[{'label': 'display', 'lat': 40.812799240478064, 'lng': -73.90733521559764}, {'label': 'entrance', 'lat': 40.812763, 'lng': -73.907499}]",268,10455,US,Bronx,NY,United States,"['772 E 149th St', 'Bronx, NY 10455', 'United States']",,4bb692672ea19521a6ecab2f,,,Italian Restaurant,Italian,7.2,8.0,3.0,,,9.0,17.0,Bronx,Mott Haven-Port Morris,BX39
278,La Patrona Restaurant,Mexican Restaurant,812 E 149th St,,40.81238174438477,-73.9060287475586,"[{'label': 'display', 'lat': 40.812381744384766, 'lng': -73.9060287475586}]",154,10455,US,Bronx,NY,United States,"['812 E 149th St', 'Bronx, NY 10455', 'United States']",,59d3df56646e38563e5dbcae,,,Mexican Restaurant,Mexican,,3.0,,,,1.0,,Bronx,Mott Haven-Port Morris,BX39
281,Sabor Latino Cuchifrito Restaurant,Latin American Restaurant,1017 Westchester Ave,,40.824226,-73.893476,"[{'label': 'display', 'lat': 40.824226, 'lng': -73.893476}, {'label': 'entrance', 'lat': 40.824087, 'lng': -73.893453}]",405,10459,US,Bronx,NY,United States,"['1017 Westchester Ave', 'Bronx, NY 10459', 'United States']",,50f9979ee4b0d1bdaa78de80,,,Latin American Restaurant,Latin American,,2.0,,,,1.0,,Bronx,Hunts Point,BX27
282,Dan's Seafood Restaurant,Seafood Restaurant,1017 Westchester Ave,btwn Fox & Simpson Streets,40.82419967651367,-73.89330291748047,"[{'label': 'display', 'lat': 40.82419967651367, 'lng': -73.89330291748047}]",387,10459,US,Bronx,NY,United States,"['1017 Westchester Ave (btwn Fox & Simpson Streets)', 'Bronx, NY 10459', 'United States']",,4f42c96de4b03c8ff5d42ea3,,,Seafood Restaurant,Seafood,,5.0,,,,0.0,,Bronx,Hunts Point,BX27
284,El Despertar Restaurant,Caribbean Restaurant,,,40.81997650456557,-73.90143531576301,"[{'label': 'display', 'lat': 40.81997650456556, 'lng': -73.90143531576302}]",274,10459,US,Bronx,NY,United States,"['Bronx, NY 10459', 'United States']",,4cdae9124006a14369f2d4b2,,,Caribbean Restaurant,Caribbean,,1.0,,,,3.0,,Bronx,Longwood,BX33
285,No. 1 Kitchen Chinese Restaurant,Chinese Restaurant,839 Prospect Ave,,40.81995010375977,-73.90191650390625,"[{'label': 'display', 'lat': 40.819950103759766, 'lng': -73.90191650390625}]",281,10459,US,Bronx,NY,United States,"['839 Prospect Ave', 'Bronx, NY 10459', 'United States']",,4e4cf9e5bd413c4cc66dafee,,,Chinese Restaurant,Chinese,,0.0,,,,1.0,,Bronx,Melrose South-Mott Haven North,BX34
287,Chinantla Restaurant,Mexican Restaurant,657 Myrtle Ave,,40.69449180327934,-73.95749904044412,"[{'label': 'display', 'lat': 40.69449180327934, 'lng': -73.95749904044412}, {'label': 'entrance', 'lat': 40.694529, 'lng': -73.957448}]",338,11205,US,Brooklyn,NY,United States,"['657 Myrtle Ave', 'Brooklyn, NY 11205', 'United States']",,4b118a40f964a520d87e23e3,,,Mexican Restaurant,Mexican,8.6,39.0,,,,20.0,61.0,Brooklyn,Bedford,BK75
288,J&w Restaurant,Restaurant,654 Myrtle Ave,,40.694201,-73.957723,"[{'label': 'display', 'lat': 40.694201, 'lng': -73.957723}, {'label': 'entrance', 'lat': 40.694293, 'lng': -73.957742}]",311,11205,US,Brooklyn,NY,United States,"['654 Myrtle Ave', 'Brooklyn, NY 11205', 'United States']",,4e4ce65bbd413c4cc66d11d2,,,Restaurant,Restaurant,,0.0,,,,0.0,,Brooklyn,Clinton Hill,BK69
289,Taste Of China Restaurant,Chinese Restaurant,438 Myrtle Ave,,40.692974,-73.968245,"[{'label': 'display', 'lat': 40.692974, 'lng': -73.968245}, {'label': 'entrance', 'lat': 40.693093, 'lng': -73.968107}]",588,11205,US,Brooklyn,NY,United States,"['438 Myrtle Ave', 'Brooklyn, NY 11205', 'United States']",,4e4ce67cbd413c4cc66d12c5,,,Chinese Restaurant,Chinese,,0.0,,,,0.0,,Brooklyn,Clinton Hill,BK69
291,El Castillo Restaurant Spanish Food,European Restaurant,1227 Bedford Ave,Fulton street,40.681243896484375,-73.95320129394531,"[{'label': 'display', 'lat': 40.681243896484375, 'lng': -73.95320129394531}]",457,11216,US,Brooklyn,NY,United States,"['1227 Bedford Ave (Fulton street)', 'Brooklyn, NY 11216', 'United States']",,4db17d2e0cb6442b2ec9f813,,,Spanish Restaurant,Spanish,,1.0,,,,1.0,,Brooklyn,Bedford,BK75
295,Alibaba's Halal Chinese Restaurant,Chinese Restaurant,1153 Fulton St,Franklin Avenue,40.681365,-73.955513,"[{'label': 'display', 'lat': 40.681365, 'lng': -73.955513}, {'label': 'entrance', 'lat': 40.681217, 'lng': -73.955513}]",296,11216,US,Brooklyn,NY,United States,"['1153 Fulton St (Franklin Avenue)', 'Brooklyn, NY 11216', 'United States']",,4c32a4483896e21e16eae890,,,Chinese Restaurant,Chinese,,1.0,,,,1.0,,Brooklyn,Clinton Hill,BK69
297,Evelina Restaurant,Italian Restaurant,211 Dekalb Ave,Adelphi,40.689629,-73.971018,"[{'label': 'display', 'lat': 40.689629, 'lng': -73.971018}]",324,11205,US,Brooklyn,NY,United States,"['211 Dekalb Ave (Adelphi)', 'Brooklyn, NY 11205', 'United States']",,5a00f3538496ca58fd9e2856,,,Italian Restaurant,Italian,9.4,191.0,,,,34.0,236.0,Brooklyn,Fort Greene,BK68
298,Yang No. 1 Asian Restaurant,Chinese Restaurant,109 S Portland Ave,btwn Hanson Pl & Fulton St,40.686,-73.974181,"[{'label': 'display', 'lat': 40.686, 'lng': -73.974181}, {'label': 'entrance', 'lat': 40.685987, 'lng': -73.974254}]",455,11217,US,Brooklyn,NY,United States,"['109 S Portland Ave (btwn Hanson Pl & Fulton St)', 'Brooklyn, NY 11217', 'United States']",,55971a86498ef2e7229297c7,,,Chinese Restaurant,Chinese,5.0,5.0,,,,6.0,18.0,Brooklyn,Fort Greene,BK68
301,New Hong Cheong,Chinese Restaurant,143 Greene Ave,btwn Washington & Waverly Ave.,40.6866838587202,-73.966352680653,"[{'label': 'display', 'lat': 40.6866838587202, 'lng': -73.966352680653}, {'label': 'entrance', 'lat': 40.686751, 'lng': -73.96634}]",161,11238,US,Brooklyn,NY,United States,"['143 Greene Ave (btwn Washington & Waverly Ave.)', 'Brooklyn, NY 11238', 'United States']",,4b57bf5cf964a520123f28e3,,,Chinese Restaurant,Chinese,7.5,5.0,,,,3.0,8.0,Brooklyn,Clinton Hill,BK69
303,Kum Kau,Chinese Restaurant,463 Myrtle Ave,btwn Washington Ave & Hall St,40.69337308636808,-73.96675330374049,"[{'label': 'display', 'lat': 40.693373086368084, 'lng': -73.96675330374048}, {'label': 'entrance', 'lat': 40.693463, 'lng': -73.966722}]",586,11205,US,Brooklyn,NY,United States,"['463 Myrtle Ave (btwn Washington Ave & Hall St)', 'Brooklyn, NY 11205', 'United States']",,4a71ff01f964a52016da1fe3,,,Chinese Restaurant,Chinese,7.9,110.0,1.0,,,77.0,187.0,Brooklyn,Clinton Hill,BK69
304,The Halal Restaurant,American Restaurant,1168 Fulton St,Bedford Av,40.680642999999996,-73.954328,"[{'label': 'display', 'lat': 40.680642999999996, 'lng': -73.954328}, {'label': 'entrance', 'lat': 40.680729, 'lng': -73.954297}]",414,11216,US,Brooklyn,NY,United States,"['1168 Fulton St (Bedford Av)', 'Brooklyn, NY 11216', 'United States']",,4c1fa4e563750f477c73bb67,,,American Restaurant,American,,2.0,,,,2.0,,Brooklyn,Clinton Hill,BK69
305,Buff Patty Restaurant & Bakery,Caribbean Restaurant,376 Myrtle Ave,,40.69319646994214,-73.97113563966901,"[{'label': 'display', 'lat': 40.69319646994214, 'lng': -73.97113563966901}, {'label': 'entrance', 'lat': 40.693084, 'lng': -73.97117}]",554,11205,US,Brooklyn,NY,United States,"['376 Myrtle Ave', 'Brooklyn, NY 11205', 'United States']",,4b06f653f964a5205bf422e3,,,Caribbean Restaurant,Caribbean,6.5,12.0,,,,13.0,25.0,Brooklyn,Fort Greene,BK68
306,Los Pollitos III,Mexican Restaurant,499 Myrtle Ave,Ryerson,40.693588760795954,-73.96506751389639,"[{'label': 'display', 'lat': 40.693588760795954, 'lng': -73.96506751389639}]",217,11205,US,Brooklyn,NY,United States,"['499 Myrtle Ave (Ryerson)', 'Brooklyn, NY 11205', 'United States']",,4ba4e92ef964a5200bc238e3,,,Mexican Restaurant,Mexican,6.6,36.0,2.0,,,33.0,78.0,Brooklyn,Clinton Hill,BK69
307,Thai 101,Asian Restaurant,455 Myrtle Ave,at Washington Ave.,40.69321985502257,-73.96752715831622,"[{'label': 'display', 'lat': 40.69321985502257, 'lng': -73.96752715831622}]",317,11205,US,Brooklyn,NY,United States,"['455 Myrtle Ave (at Washington Ave.)', 'Brooklyn, NY 11205', 'United States']",,4a709d9ff964a520f6d71fe3,,,Thai Restaurant,Thai,7.9,50.0,2.0,,,38.0,90.0,Brooklyn,Clinton Hill,BK69
308,Myrtle Thai,Asian Restaurant,438 Myrtle Ave,,40.693226181152355,-73.96805234974003,"[{'label': 'display', 'lat': 40.69322618115236, 'lng': -73.96805234974003}]",344,11205,US,Brooklyn,NY,United States,"['438 Myrtle Ave', 'Brooklyn, NY 11205', 'United States']",,4a7b3439f964a5204cea1fe3,,,Thai Restaurant,Thai,7.9,50.0,2.0,,,23.0,77.0,Brooklyn,Clinton Hill,BK69
309,Castros,Mexican Restaurant,511 Myrtle Ave,btwn Grand & Ryerson,40.69386129298784,-73.96442206286395,"[{'label': 'display', 'lat': 40.69386129298784, 'lng': -73.96442206286395}, {'label': 'entrance', 'lat': 40.693724, 'lng': -73.964406}]",201,11205,US,Brooklyn,NY,United States,"['511 Myrtle Ave (btwn Grand & Ryerson)', 'Brooklyn, NY 11205', 'United States']",,42829c80f964a52053221fe3,,,Mexican Restaurant,Mexican,7.5,57.0,1.0,,,43.0,106.0,Brooklyn,Clinton Hill,BK69
310,Chef Flaco El Paraiso Restaurant,Mexican Restaurant,353 Myrtle Ave,,40.693375,-73.972142,"[{'label': 'display', 'lat': 40.693375, 'lng': -73.972142}, {'label': 'entrance', 'lat': 40.693323, 'lng': -73.972145}]",484,11205,US,Brooklyn,NY,United States,"['353 Myrtle Ave', 'Brooklyn, NY 11205', 'United States']",,4e4ce654bd413c4cc66d1196,,,Mexican Restaurant,Mexican,,0.0,,,,0.0,,Brooklyn,Fort Greene,BK68
312,New No. 1 Chinese Restaurant,Chinese Restaurant,1011 Bedford Ave,,40.689351,-73.954851,"[{'label': 'display', 'lat': 40.689351, 'lng': -73.954851}, {'label': 'entrance', 'lat': 40.68934, 'lng': -73.954959}]",439,11205,US,New York,NY,United States,"['1011 Bedford Ave', 'New York, NY 11205', 'United States']",,4b287093f964a5205d9324e3,,,Chinese Restaurant,Chinese,,2.0,1.0,,,1.0,,Brooklyn,Bedford,BK75
313,Anaiah’s Seafood Restaurant,Seafood Restaurant,744 Myrtle Ave,Nostrand,40.694898,-73.952878,"[{'label': 'display', 'lat': 40.694898, 'lng': -73.952878}]",348,11205,US,New York,NY,United States,"['744 Myrtle Ave (Nostrand)', 'New York, NY 11205', 'United States']",,5d034f05c0af57002c40d51f,,,Seafood Restaurant,Seafood,,0.0,,,,0.0,,Brooklyn,Bedford,BK75
314,Sugar Hill Restaurant & Supper Club,Restaurant,217 Nostrand Ave,,40.69158172607422,-73.95159149169922,"[{'label': 'display', 'lat': 40.69158172607422, 'lng': -73.95159149169922}]",433,11205,US,Brooklyn,NY,United States,"['217 Nostrand Ave', 'Brooklyn, NY 11205', 'United States']",,59e072ea35f983092f7834a4,,,Restaurant,Restaurant,,1.0,,,,1.0,,Brooklyn,Bedford,BK75
315,Fat Cheng Restaurant,Chinese Restaurant,261 Nostrand Ave,Lafayette,40.689766999999996,-73.951213,"[{'label': 'display', 'lat': 40.689766999999996, 'lng': -73.951213}, {'label': 'entrance', 'lat': 40.689755, 'lng': -73.951318}]",570,11216,US,Brooklyn,NY,United States,"['261 Nostrand Ave (Lafayette)', 'Brooklyn, NY 11216', 'United States']",,4b930c28f964a520593134e3,,,Chinese Restaurant,Chinese,,2.0,,,,1.0,,Brooklyn,Bedford,BK75
316,Shanghai Chinese Restaurant,Asian Restaurant,9537 Sutphin Blvd,,40.69757080078125,-73.80561828613281,"[{'label': 'display', 'lat': 40.69757080078125, 'lng': -73.80561828613281}]",240,11435,US,Jamaica,NY,United States,"['9537 Sutphin Blvd', 'Jamaica, NY 11435', 'United States']",,4e41c3062271a904669e8d6c,,,Asian Restaurant,Asian,,1.0,2.0,,,0.0,,Queens,Jamaica,QN61
318,Dragon City Chinese Restaurant,Chinese Restaurant,9510 Sutphin Blvd,,40.698291,-73.806392,"[{'label': 'display', 'lat': 40.698291, 'lng': -73.806392}]",262,11435,US,Jamaica,NY,United States,"['9510 Sutphin Blvd', 'Jamaica, NY 11435', 'United States']",,4e4ce26abd413c4cc66cf284,,,Chinese Restaurant,Chinese,,0.0,1.0,,,0.0,,Queens,Jamaica,QN61
319,Zumba's Restaurant,European Restaurant,94-14 Sutphin Blvd,,40.69853973388672,-73.80690002441406,"[{'label': 'display', 'lat': 40.69853973388672, 'lng': -73.80690002441406}]",298,11435,US,Jamaica,NY,United States,"['94-14 Sutphin Blvd', 'Jamaica, NY 11435', 'United States']",,4e4c1b12fa769ce595ac2a2e,,,Spanish Restaurant,Spanish,,1.0,,,,1.0,,Queens,Jamaica,QN61
321,Zumbe's Restaurant,European Restaurant,94-14 Sutphin Blvd,,40.69853973388672,-73.80690002441406,"[{'label': 'display', 'lat': 40.69853973388672, 'lng': -73.80690002441406}]",298,11435,US,Jamaica,NY,United States,"['94-14 Sutphin Blvd', 'Jamaica, NY 11435', 'United States']",,510094e7e4b04647c6f09439,,,Spanish Restaurant,Spanish,,1.0,,,,0.0,,Queens,Jamaica,QN61
322,Eagle Lounge Restaurant & Bar,American Restaurant,17826 Jamaica Ave,,40.70787048339844,-73.78226470947266,"[{'label': 'display', 'lat': 40.70787048339844, 'lng': -73.78226470947266}]",561,11432,US,Jamaica,NY,United States,"['17826 Jamaica Ave', 'Jamaica, NY 11432', 'United States']",,4e4ce23cbd413c4cc66cf0c7,,,American Restaurant,American,,0.0,2.0,,,0.0,,Queens,Jamaica,QN61
323,New Yu Yee Chinese Restaurant,Chinese Restaurant,16612 Hillside Ave,,40.70945358276367,-73.79553985595703,"[{'label': 'display', 'lat': 40.70945358276367, 'lng': -73.79553985595703}]",163,11432,US,Jamaica,NY,United States,"['16612 Hillside Ave', 'Jamaica, NY 11432', 'United States']",,4e4cd7bdbd413c4cc66c9abb,,,Chinese Restaurant,Chinese,,0.0,1.0,,,0.0,,Queens,Jamaica,QN61
324,Jennifer's Restaurant,Latin American Restaurant,15341 Hillside Ave,,40.707845011415074,-73.80289682641039,"[{'label': 'display', 'lat': 40.70784501141508, 'lng': -73.80289682641039}]",515,11432,US,Jamaica,NY,United States,"['15341 Hillside Ave', 'Jamaica, NY 11432', 'United States']",,4c321d0566e40f4791f5c58b,,,Latin American Restaurant,Latin American,7.3,8.0,,,,8.0,15.0,Queens,Briarwood-Jamaica Hills,QN35
325,Punto Cibaeno Restaurant,Latin American Restaurant,164-05 89th Ave,,40.7076362,-73.79688840000001,"[{'label': 'display', 'lat': 40.7076362, 'lng': -73.7968884}]",80,11432,US,Jamaica,NY,United States,"['164-05 89th Ave', 'Jamaica, NY 11432', 'United States']",,58914333375c4a1ccbd604eb,,,Latin American Restaurant,Latin American,,0.0,,,,0.0,,Queens,Jamaica,QN61
327,Chang Pai Thai & Chinese Restaurant,Asian Restaurant,166-12 Hillside Ave,,40.709678770021256,-73.7958080634409,"[{'label': 'display', 'lat': 40.709678770021256, 'lng': -73.7958080634409}]",170,11432,US,Jamaica,NY,United States,"['166-12 Hillside Ave', 'Jamaica, NY 11432', 'United States']",,5083573ee4b09e409cb9cb86,,,Asian Restaurant,Asian,5.2,3.0,,,,5.0,11.0,Queens,Jamaica,QN61
330,Ma's Restaurant,Restaurant,16212 South Rd,,40.699581,-73.794504,"[{'label': 'display', 'lat': 40.699581, 'lng': -73.794504}]",516,11433,US,Jamaica,NY,United States,"['16212 South Rd', 'Jamaica, NY 11433', 'United States']",,4e4e3de7bd4101d0d7a5bc79,,,Restaurant,Restaurant,,0.0,,,,0.0,,Queens,Jamaica,QN61
331,Sunny Garden Restaurant,Chinese Restaurant,17007 Jamaica Ave,,40.707222,-73.78957,"[{'label': 'display', 'lat': 40.707222, 'lng': -73.78957}]",571,11432,US,Jamaica,NY,United States,"['17007 Jamaica Ave', 'Jamaica, NY 11432', 'United States']",,4e4ce23ebd413c4cc66cf0d8,,,Chinese Restaurant,Chinese,,1.0,,,,0.0,,Queens,Jamaica,QN61
332,La Chaparrita Mexican Restaurant,Mexican Restaurant,184-13 Jamaica Ave.,,40.7094612121582,-73.77561950683594,"[{'label': 'display', 'lat': 40.7094612121582, 'lng': -73.77561950683594}]",372,11368,US,Corona,NY,United States,"['184-13 Jamaica Ave.', 'Corona, NY 11368', 'United States']",,4e4df9cabd4101d0d79f7161,,,Mexican Restaurant,Mexican,,1.0,,,,0.0,,Queens,Jamaica,QN61
